stop_id,stop_name,stop_lat,stop_lon,stop_code,stop_desc,zone_id,stop_url,location_type,parent_station,wheelchair_boarding,stop_timezone,platform_code,tts_stop_name
1-100,1st Ave & Spring St,47.605137,-122.336533,100,,21,,,,1,America/Los_Angeles,,First Avenue and Spring Street
1-101,Spring St & 3rd Ave,47.606136,-122.334969,101,,21,,,,1,America/Los_Angeles,,Spring Street and Third Avenue
1-1010,Howell St & Minor Ave,47.616711,-122.330597,1010,,1,,,,1,America/Los_Angeles,,Howell Street and Minor Avenue
1-102,Spring St & 4th Ave,47.606911,-122.333092,102,,21,,,,1,America/Los_Angeles,,Spring Street and Fourth Avenue
1-1020,Howell St & Yale Ave,47.617626,-122.329407,,,21,,,,,America/Los_Angeles,,
1-103,Spring St & 8th Ave,47.608528,-122.329239,103,,1,,,,1,America/Los_Angeles,,Spring Street and Eighth Avenue
1-104,Madison St & Terry Ave,47.608948,-122.325897,104,,1,,,,1,America/Los_Angeles,,Madison Street and Terry Avenue
1-1040,Olive Way & 6th Ave,47.613026,-122.336334,1040,,21,,,,1,America/Los_Angeles,,Olive Way and Sixth Avenue
1-105,Madison St & Boylston Ave,47.610355,-122.322517,105,,1,,,,1,America/Los_Angeles,,Madison Street and Boylston Avenue
1-1050,Olive Way & 8th Ave,47.613937,-122.334160,1050,,1,,,,1,America/Los_Angeles,,Olive Way and Eighth Avenue
1-106,E Madison St & 12th Ave,47.613125,-122.315880,106,,1,,,,1,America/Los_Angeles,,East Madison Street and 12th Avenue
1-107,E Madison St & 17th Ave,47.615696,-122.309723,107,,1,,,,1,America/Los_Angeles,,East Madison Street and 17th Avenue
1-1070,Olive Way & Terry Ave,47.614883,-122.331894,1070,,1,,,,1,America/Los_Angeles,,Olive Way and Terry Avenue
1-108,E Madison St & 22nd Ave E,47.618130,-122.303940,108,,1,,,,1,America/Los_Angeles,,East Madison Street and 22nd Avenue East
1-1085,Pine St & 9th Ave,47.613377,-122.332603,1085,,21,,,,1,America/Los_Angeles,,Pine Street and 9th Avenue
1-109,E Madison St & 24th Ave E,47.620537,-122.300407,109,,1,,,,1,America/Los_Angeles,,East Madison Street and 24th Avenue East
1-111,E Madison St & Martin L King Jr Way E,47.622658,-122.297264,111,,1,,,,1,America/Los_Angeles,,East Madison Street and Martin Luther King Jr Way East
1-1110,Pine St & 5th Ave,47.611767,-122.336456,1110,,21,,,,1,America/Los_Angeles,,Pine Street and Fifth Avenue
1-1120,Pine St & 4th Ave,47.611103,-122.338028,1120,,21,,,,1,America/Los_Angeles,,Pine Street and Fourth Avenue
1-1180,Pike St & 4th Ave,47.610073,-122.336838,1180,,21,,,,1,America/Los_Angeles,,Pike Street and Fourth Avenue
1-1190,Pike St & 6th Ave,47.611034,-122.334526,1190,,21,,,,1,America/Los_Angeles,,Pike Street and Sixth Avenue
1-1195,Pike St & 7th Ave,47.611809,-122.332687,1195,,21,,,,1,America/Los_Angeles,,Pike Street and Seventh Avenue
1-120,E Madison St & Martin L King Jr Way E,47.623097,-122.296906,120,,1,,,,1,America/Los_Angeles,,East Madison Street and Martin Luther King Jr Way East
1-121,E Madison St & 23rd Ave E,47.619316,-122.302483,121,,1,,,,1,America/Los_Angeles,,East Madison Street and 23rd Avenue East
1-1215,Union St & 5th Ave,47.609829,-122.334511,1215,,21,,,,1,America/Los_Angeles,,Union Street and Fifth Avenue
1-122,E Madison St & 22nd Ave E,47.617954,-122.304665,122,,1,,,,1,America/Los_Angeles,,East Madison Street and 22nd Avenue East
1-123,E Madison St & 17th Ave,47.615521,-122.310516,123,,1,,,,1,America/Los_Angeles,,East Madison Street and 17th Avenue
1-1230,Union St & 4th Ave,47.609081,-122.336288,1230,,21,,,,1,America/Los_Angeles,,Union Street and Fourth Avenue
1-124,E Madison St & 12th Ave,47.613129,-122.316254,124,,1,,,,1,America/Los_Angeles,,East Madison Street and 12th Avenue
1-125,Madison St & Boylston Ave,47.610580,-122.322372,125,,1,,,,1,America/Los_Angeles,,Madison Street and Boylston Avenue
1-1250,Seneca St & 4th Ave,47.607422,-122.334610,1250,,21,,,,1,America/Los_Angeles,,Seneca Street and Fourth Avenue
1-126,Madison St & Terry Ave,47.609070,-122.325974,126,,1,,,,1,America/Los_Angeles,,Madison Street and Terry Avenue
1-1260,Seneca St & 6th Ave,47.608742,-122.331482,1260,,1,,,,1,America/Los_Angeles,,Seneca Street and Sixth Avenue
1-127,Madison St & 8th Ave,47.607868,-122.328857,127,,1,,,,1,America/Los_Angeles,,Madison Street and Eighth Avenue
1-128,Madison St & 5th Ave,47.606735,-122.331566,128,,21,,,,1,America/Los_Angeles,,Madison Street and Fifth Avenue
1-129,Madison St & 3rd Ave,47.605541,-122.334419,129,,21,,,,1,America/Los_Angeles,,Madison Street and Third Avenue
1-1340,Yesler Way & Prefontaine Pl S,47.601646,-122.329582,1340,,21,,,,1,America/Los_Angeles,,Yesler Way and Prefontaine Place South
1-1350,Yesler Way & 6th Ave S,47.601639,-122.325050,1350,,1,,,,1,America/Los_Angeles,,Yesler Way and Sixth Avenue South
1-1360,Yesler Way & 5th Ave,47.601780,-122.327141,1360,,21,,,,1,America/Los_Angeles,,Yesler Way and Fifth Avenue
1-1370,Yesler Way & 3rd Ave,47.601780,-122.329803,1370,,21,,,,1,America/Los_Angeles,,Yesler Way and Third Avenue
1-1468,S King St & Occidental Ave S,47.598358,-122.332603,1468,,1,,,,,America/Los_Angeles,,South King Street and Occidental Avenue South
1-1469,S Jackson St & Occidental Ave S,47.599136,-122.333069,1469,,1,,,,,America/Los_Angeles,,South Jackson Street and Occidental Avenue South
1-1471,S Jackson St & 5th Ave S,47.599125,-122.328041,1471,,71,,,,1,America/Los_Angeles,,South Jackson Street and Fifth Avenue South
1-1480,S Jackson St & Maynard Ave S,47.599117,-122.324570,1480,,21,,,,1,America/Los_Angeles,,South Jackson Street and Maynard Avenue South
1-1490,S Jackson St & 8th Ave S,47.599117,-122.322044,1490,,1,,,,1,America/Los_Angeles,,South Jackson Street and Eighth Avenue South
1-1500,S Jackson St & 8th Ave S,47.599266,-122.322327,1500,,21,,,,1,America/Los_Angeles,,South Jackson Street and Eighth Avenue South
1-1510,S Jackson St & Maynard Ave S,47.599262,-122.325470,1510,,21,,,,1,America/Los_Angeles,,South Jackson Street and Maynard Avenue South
1-1512,1st Ave S & S Charles St,47.595249,-122.334091,1512,,1,,,,,America/Los_Angeles,,1st Avenue South and South Charles Street
1-1513,1st Ave S & S Royal Brougham Way,47.592163,-122.334091,1513,,1,,,,,America/Los_Angeles,,1st Avenue South and South Royal Brougham Way
1-1530,S Jackson St & 5th Ave S,47.599266,-122.328384,1530,,1,,,,1,America/Los_Angeles,,South Jackson Street and Fifth Avenue South
1-1540,James St & 5th Ave,47.603802,-122.329094,1540,,21,,,,1,America/Los_Angeles,,James Street and Fifth Avenue
1-1550,James St & 4th Ave,47.603081,-122.330864,1550,,21,,,,1,America/Los_Angeles,,James Street and Fourth Avenue
1-1551,Occidental Mall,47.599274,-122.333282,1551,,1,,,,1,America/Los_Angeles,,Occidental Mall
1-1558,Columbia St & Alaskan Way,47.602615,-122.336784,1558,,21,,,,1,America/Los_Angeles,,Columbia Street and Alaskan Way
1-1559,Alaskan Way & Columbia St,47.602497,-122.336685,1559,,21,,,,1,America/Los_Angeles,,Alaskan Way and Columbia Street
1-1560,James St & 3rd Ave,47.602932,-122.330826,1560,,21,,,,1,America/Los_Angeles,,James Street and Third Avenue
1-1561,Alaskan Way S & S Jackson St,47.599701,-122.335556,1561,,21,,,,1,America/Los_Angeles,,Alaskan Way South and South Jackson Street
1-1562,Alaskan Way S & S Jackson St,47.598717,-122.335960,1562,,1,,,,1,America/Los_Angeles,,Alaskan Way South and South Jackson Street
1-1570,James St & 5th Ave,47.603771,-122.328773,1570,,21,,,,1,America/Los_Angeles,,James Street and Fifth Avenue
1-1610,Prefontaine Pl S & Yesler Way,47.601658,-122.329941,1610,,21,,,,1,America/Los_Angeles,,Prefontaine Place South and Yesler Way
1-1619,Westlake And 7th,47.614864,-122.337860,1619,,1,,,,1,America/Los_Angeles,,Westlake And 7th
1-1651,5th & Jackson,47.599266,-122.327095,1651,,21,,,,1,America/Los_Angeles,,5th and Jackson
1-1652,5th & Jackson,47.599125,-122.327095,1652,,21,,,,1,America/Los_Angeles,,5th and Jackson
1-1662,7th & Jackson,47.599129,-122.323296,1662,,21,,,,1,America/Los_Angeles,,7th and Jackson
1-1681,14th & Washington,47.600590,-122.314240,1681,,1,,,,1,America/Los_Angeles,,14th and Washington
1-1682,14th & Washington,47.600594,-122.314041,1682,,1,,,,1,America/Los_Angeles,,14th and Washington
1-1690,3rd Ave & Vine St,47.616959,-122.348450,1690,,1,,,,1,America/Los_Angeles,,3rd Avenue and Vine Street
1-1710,Terrace St & 5th Ave,47.602047,-122.328255,1710,,21,,,,1,America/Los_Angeles,,Terrace Street and Fifth Avenue
1-1889,Vashon Island Water Taxi & Colman Dock,47.601223,-122.338928,1889,,1,,,,1,America/Los_Angeles,,Vashon Island Water Taxi and Colman Dock
1-1907,West Seattle Water Taxi & Colman Dock,47.601253,-122.338860,1907,,1,,,,1,America/Los_Angeles,,West Seattle Water Taxi and Colman Dock
1-1920,Lenora St & 4th Ave,47.613972,-122.341293,1920,,21,,,,1,America/Los_Angeles,,Lenora Street and Fourth Avenue
1-2020,10th Ave W & W Bothwell St,47.643486,-122.370308,2020,,1,,,,1,America/Los_Angeles,,10th Avenue West and West Bothwell Street
1-2030,10th Ave W & W Halladay St,47.641792,-122.370171,2030,,1,,,,1,America/Los_Angeles,,10th Avenue West and West Halladay Street
1-2050,10th Ave W & W Mcgraw St,47.639366,-122.370415,2050,,1,,,,1,America/Los_Angeles,,10th Avenue West and West Mcgraw Street
1-2060,10th Ave W & W Crockett St,47.637585,-122.370438,2060,,1,,,,1,America/Los_Angeles,,10th Avenue West and West Crockett Street
1-2080,10th Ave W & W Blaine St,47.634563,-122.370483,2080,,1,,,,1,America/Los_Angeles,,10th Avenue West and West Blaine Street
1-2090,10th Ave W & W Galer St,47.632366,-122.370506,2090,,1,,,,1,America/Los_Angeles,,10th Avenue West and West Galer Street
1-2100,Olympic Way W & W Lee St,47.631081,-122.370155,2100,,1,,,,1,America/Los_Angeles,,Olympic Way West and West Lee Street
1-2110,Olympic Way W & 9th Ave W,47.629337,-122.368477,2110,,1,,,,1,America/Los_Angeles,,Olympic Way West and 9th Avenue West
1-2120,Olympic Way W & 7th Ave W,47.627598,-122.366112,2120,,1,,,,2,America/Los_Angeles,,Olympic Way West and Seventh Avenue West
1-2130,Olympic Way W & 5th Ave W,47.626671,-122.363335,2130,,1,,,,1,America/Los_Angeles,,Olympic Way West and Fifth Avenue West
1-2140,W Olympic Pl & 3rd Ave W,47.626656,-122.360306,2140,,1,,,,1,America/Los_Angeles,,West Olympic Place and Third Avenue West
1-2150,W Roy St & 2nd Ave W,47.625656,-122.358765,2150,,1,,,,1,America/Los_Angeles,,West Roy Street and Second Avenue West
1-2180,Queen Anne Ave N & W Harrison St,47.621834,-122.356819,2180,,1,,,,1,America/Los_Angeles,,Queen Anne Avenue North and West Harrison Street
1-2200,Queen Anne Ave N & W John St,47.619267,-122.356850,2200,,1,,,,1,America/Los_Angeles,,Queen Anne Avenue North and West John Street
1-2201,S Lewis St & Sumac Dr,47.848717,-121.970749,2201,,15,,,,,America/Los_Angeles,,South Lewis Street and Sumac Drive
1-2206,S Lewis St & Powell St,47.849964,-121.970932,2206,,15,,,,,America/Los_Angeles,,South Lewis Street and Powell Street
1-2207,Galaxy Way & N Kelsey St,47.865589,-121.973129,2207,,15,,,,1,America/Los_Angeles,,Galaxy Way and North Kelsey Street
1-2208,Us Hwy 2 & E Main St,47.858223,-121.965927,2208,,15,,,,1,America/Los_Angeles,,US Highway two and East Main Street
1-2209,Us Hwy 2 & E Main St,47.858429,-121.966248,2209,,15,,,,1,America/Los_Angeles,,US Highway two and East Main Street
1-22099,Delridge Way SW & SW Graham St,47.546783,-122.363037,22099,,1,,,,1,America/Los_Angeles,,Delridge Way Southwest and Southwest Graham Street
1-2220,3rd Ave & Cedar St,47.616776,-122.348450,2220,,1,,,,1,America/Los_Angeles,,3rd Avenue and Cedar Street
1-2244,Denny Way & 2nd Ave N,47.618515,-122.351715,2244,,1,,,,1,America/Los_Angeles,,Denny Way and Second Avenue North
1-2245,Denny Way & 5th Ave N,47.618504,-122.347878,2245,,1,,,,1,America/Los_Angeles,,Denny Way and Fifth Avenue North
1-2249,Denny Way & 7th Ave N,47.618626,-122.343323,2249,,1,,,,1,America/Los_Angeles,,Denny Way and Seventh Avenue North
1-2250,Denny Way & Dexter Ave,47.618481,-122.342545,2250,,1,,,,1,America/Los_Angeles,,Denny Way and Dexter Avenue
1-2255,Denny Way & Westlake Ave,47.618469,-122.338219,2255,,1,,,,1,America/Los_Angeles,,Denny Way and Westlake Avenue
1-2260,Denny Way & Fairview Ave,47.618462,-122.334572,2260,,1,,,,1,America/Los_Angeles,,Denny Way and Fairview Avenue
1-2262,Denny Way & Stewart St,47.618427,-122.330925,2262,,1,,,,1,America/Los_Angeles,,Denny Way and Stewart Street
1-2264,E Denny Way & Melrose Ave,47.618420,-122.327423,2264,,1,,,,1,America/Los_Angeles,,East Denny Way and Melrose Avenue
1-2270,16th Ave E & E Denny Way,47.618668,-122.311539,2270,,1,,,,1,America/Los_Angeles,,Sixteenth Avenue East and East Denny Way
1-2275,E Denny Way & Bellevue Ave E,47.618565,-122.326553,2275,,1,,,,1,America/Los_Angeles,,East Denny Way and Bellevue Avenue East
1-2285,Denny Way & Fairview Ave N,47.618603,-122.334213,2285,,1,,,,1,America/Los_Angeles,,Denny Way and Fairview Avenue North
1-2410,W Olympic Pl & 5th Ave W,47.626797,-122.363159,2410,,1,,,,1,America/Los_Angeles,,West Olympic Place and Fifth Avenue West
1-2420,Olympic Way W & 7th Ave W,47.627846,-122.366371,2420,,1,,,,1,America/Los_Angeles,,Olympic Way West and Seventh Avenue West
1-2430,Olympic Way W & W Prospect St,47.629067,-122.367966,2430,,1,,,,1,America/Los_Angeles,,Olympic Way West and West Prospect Street
1-2440,Olympic Way W & W Lee St,47.631279,-122.370110,2440,,1,,,,1,America/Los_Angeles,,Olympic Way West and West Lee Street
1-2450,10th Ave W & W Galer St,47.632503,-122.370308,2450,,1,,,,1,America/Los_Angeles,,10th Avenue West and West Galer Street
1-2460,10th Ave W & W Blaine St,47.634956,-122.370262,2460,,1,,,,1,America/Los_Angeles,,10th Avenue West and West Blaine Street
1-2480,10th Ave W & W Crockett St,47.637974,-122.370224,2480,,1,,,,1,America/Los_Angeles,,10th Avenue West and West Crockett Street
1-2490,10th Ave W & W Mcgraw St,47.639767,-122.370087,2490,,1,,,,1,America/Los_Angeles,,10th Avenue West and West Mcgraw Street
1-250,2nd Ave & Bell St,47.613705,-122.345253,250,,21,,,,1,America/Los_Angeles,,2nd Avenue and Bell Street
1-2520,9th Ave W & W Armour St,47.645317,-122.369278,2520,,1,,,,1,America/Los_Angeles,,9th Avenue West and West Armour Street
1-2550,7th Ave W & W Pleasant Pl,47.642651,-122.366356,2550,,1,,,,1,America/Los_Angeles,,7th Avenue West and WestPlaceeasant Place
1-2570,W Mcgraw St & 6th Ave W,47.639515,-122.365318,2570,,1,,,,1,America/Los_Angeles,,West Mcgraw Street and Sixth Avenue West
1-2580,6th Ave W & W Crockett St,47.637566,-122.365089,2580,,1,,,,1,America/Los_Angeles,,6th Avenue West and West Crockett Street
1-260,2nd Ave & Lenora St,47.612099,-122.342522,260,,21,,,,1,America/Los_Angeles,,2nd Avenue and Lenora Street
1-2610,6th Ave W & W Galer St,47.632458,-122.365158,2610,,1,,,,1,America/Los_Angeles,,6th Avenue West and West Galer Street
1-2670,Queen Anne Ave N & W Prospect St,47.628513,-122.356781,2670,,1,,,,1,America/Los_Angeles,,Queen Anne Avenue North and West Prospect Street
1-2690,1st Ave N & Mercer St,47.624737,-122.355309,2690,,1,,,,1,America/Los_Angeles,,1st Avenue North and Mercer Street
1-2760,W Galer St & 1st Ave W,47.632389,-122.358627,2760,,1,,,,1,America/Los_Angeles,,West Galer Street and First Avenue West
1-2770,W Galer St & 3rd Ave W,47.632393,-122.361290,2770,,1,,,,1,America/Los_Angeles,,West Galer Street and Third Avenue West
1-2780,W Galer St & 5th Ave W,47.632393,-122.364037,2780,,1,,,,1,America/Los_Angeles,,West Galer Street and Fifth Avenue West
1-280,2nd Ave & Stewart St,47.610615,-122.340248,280,,21,,,,1,America/Los_Angeles,,2nd Avenue and Stewart Street
1-2810,6th Ave W & W Crockett St,47.637970,-122.364868,2810,,1,,,,1,America/Los_Angeles,,6th Avenue West and West Crockett Street
1-2820,6th Ave W & W Mcgraw St,47.639839,-122.364838,2820,,1,,,,1,America/Los_Angeles,,6th Avenue West and West Mcgraw Street
1-2850,Madrona Park & Lake Washington Blvd,47.612190,-122.281700,2850,,1,,,,1,America/Los_Angeles,,Madrona Park and Lake Washington Boulevard
1-2860,Madrona Dr & Newport Way,47.613579,-122.282578,2860,,1,,,,1,America/Los_Angeles,,Madrona Drive and Newport Way
1-2890,Madrona Dr & Madrona Pl E,47.618347,-122.285255,2890,,1,,,,1,America/Los_Angeles,,Madrona Drive and Madrona Place East
1-2930,34th Ave & E Union St,47.613014,-122.289406,2930,,1,,,,1,America/Los_Angeles,,34th Avenue and East Union Street
1-2940,E Union St & 33rd Ave,47.612972,-122.290802,2940,,1,,,,1,America/Los_Angeles,,East Union Street and 33rd Avenue
1-2950,E Union St & 31st Ave,47.613007,-122.292915,2950,,1,,,,1,America/Los_Angeles,,East Union Street and 31st Avenue
1-2960,E Union St & 29th Ave,47.613030,-122.295296,2960,,1,,,,1,America/Los_Angeles,,East Union Street and 29th Avenue
1-2970,E Union St & 27th Ave,47.613007,-122.297836,2970,,1,,,,1,America/Los_Angeles,,East Union Street and 27th Avenue
1-2995,E Union St & 23rd Ave,47.613007,-122.303001,2995,,1,,,,1,America/Los_Angeles,,East Union Street and 23rd Avenue
1-300,2nd Ave & Pike St,47.608646,-122.338432,300,,21,,,,1,America/Los_Angeles,,2nd Avenue and Pike Street
1-3000,E Union St & 20th Ave,47.612980,-122.306168,3000,,1,,,,1,America/Los_Angeles,,East Union Street and 20th Avenue
1-3030,E Union St & 14th Ave,47.612972,-122.314560,3030,,1,,,,1,America/Los_Angeles,,East Union Street and 14th Avenue
1-3032,E Union St & Broadway,47.613030,-122.320595,3032,,1,,,,1,America/Los_Angeles,,East Union Street and Broadway
1-3033,Seneca St & Harvard Ave,47.612602,-122.322319,3033,,1,,,,1,America/Los_Angeles,,Seneca Street and Harvard Avenue
1-3035,Seneca St & Boren Ave,47.610928,-122.326233,3035,,1,,,,1,America/Los_Angeles,,Seneca Street and Boren Avenue
1-30360,Beacon Ave S & S Holly St,47.542492,-122.299049,30360,,1,,,,1,America/Los_Angeles,,Beacon Avenue South and South Holly Street
1-3037,Seneca St & 8th Ave,47.609280,-122.330170,3037,,1,,,,1,America/Los_Angeles,,Seneca Street and Eighth Avenue
1-3150,Seneca St & 8th Ave,47.609253,-122.329842,3150,,1,,,,1,America/Los_Angeles,,Seneca Street and Eighth Avenue
1-3151,Seneca St & 9th Ave,47.609890,-122.328316,3151,,1,,,,1,America/Los_Angeles,,Seneca Street and 9th Avenue
1-3152,Seneca St & Boren Ave,47.610809,-122.326126,3152,,1,,,,1,America/Los_Angeles,,Seneca Street and Boren Avenue
1-3153,Seneca St & Summit Ave,47.611763,-122.323883,3153,,1,,,,1,America/Los_Angeles,,Seneca Street and Summit Avenue
1-3154,Seneca St & Boylston Ave,47.612221,-122.322777,3154,,1,,,,1,America/Los_Angeles,,Seneca Street and Boylston Avenue
1-3155,E Union St & Broadway,47.612884,-122.320389,3155,,1,,,,1,America/Los_Angeles,,East Union Street and Broadway
1-3160,E Union St & 13th Ave,47.612839,-122.315636,3160,,1,,,,1,America/Los_Angeles,,East Union Street and 13th Avenue
1-3190,E Union St & 18th Ave,47.612839,-122.309021,3190,,1,,,,1,America/Los_Angeles,,East Union Street and 18th Avenue
1-320,2nd Ave & Seneca St,47.606213,-122.336205,320,,21,,,,1,America/Los_Angeles,,2nd Avenue and Seneca Street
1-3220,E Union St & 26th Ave,47.612862,-122.298477,3220,,1,,,,1,America/Los_Angeles,,East Union Street and 26th Avenue
1-3240,E Union St & 30th Ave,47.612881,-122.293755,3240,,1,,,,1,America/Los_Angeles,,East Union Street and 30th Avenue
1-3280,34th Ave & E Howell St,47.617557,-122.289078,3280,,1,,,,1,America/Los_Angeles,,34th Avenue and East Howell Street
1-340,2nd Ave & Marion St,47.604466,-122.334625,340,,21,,,,1,America/Los_Angeles,,2nd Avenue and Marion Street
1-3420,Beacon Ave S & Jefferson Community Center,47.569809,-122.307449,3420,,1,,,,1,America/Los_Angeles,,Beacon Avenue South and Jefferson Community Center
1-3430,Beacon Ave S & S Spokane St,47.572151,-122.308220,3430,,1,,,,1,America/Los_Angeles,,Beacon Avenue South and South Spokane Street
1-3450,Beacon Ave S & S Hanford St,47.575306,-122.309189,3450,,1,,,,1,America/Los_Angeles,,Beacon Avenue South and South Hanford Street
1-360,2nd Ave & Cherry St,47.603020,-122.333282,360,,21,,,,1,America/Los_Angeles,,2nd Avenue and Cherry Street
1-361,2nd Ave & James St,47.602478,-122.332809,361,,21,,,,1,America/Los_Angeles,,2nd Avenue and James Street
1-375,2nd Ave Ext S & Yesler Way,47.601253,-122.331688,375,,21,,,,1,America/Los_Angeles,,2nd Avenue Ext South and Yesler Way
1-390,2nd Ave Ext S & S Jackson St,47.599266,-122.329857,390,,21,,,,1,America/Los_Angeles,,2nd Avenue Ext South and South Jackson Street
1-400,3rd Ave & Bell St,47.614300,-122.344269,400,,21,,,,1,America/Los_Angeles,,3rd Avenue and Bell Street
1-420,3rd Ave & Virginia St,47.612438,-122.341110,420,,21,,,,1,America/Los_Angeles,,3rd Avenue and Virginia Street
1-430,3rd Ave & Pine St,47.610897,-122.338966,430,,21,,,,1,America/Los_Angeles,,3rd Avenue and Pine Street
1-431,3rd Ave & Pike St,47.609791,-122.337959,431,,21,,,,1,America/Los_Angeles,,3rd Avenue and Pike Street
1-433,3rd Ave & Pike St,47.609070,-122.337288,433,,21,,,,1,America/Los_Angeles,,3rd Avenue and Pike Street
1-450,3rd Ave & Union St,47.608253,-122.336548,450,,21,,,,1,America/Los_Angeles,,3rd Avenue and Union Street
1-468,3rd Ave & Seneca St,47.606442,-122.334900,468,,21,,,,1,America/Los_Angeles,,3rd Avenue and Seneca Street
1-480,3rd Ave & Marion St,47.604996,-122.333572,480,,21,,,,1,America/Los_Angeles,,3rd Avenue and Marion Street
1-481,3rd Ave & Columbia St,47.604263,-122.332901,481,,21,,,,1,America/Los_Angeles,,3rd Avenue and Columbia Street
1-490,3rd Ave & Cherry St,47.603580,-122.332275,490,,21,,,,1,America/Los_Angeles,,3rd Avenue and Cherry Street
1-500,3rd Ave & James St,47.602818,-122.331581,500,,21,,,,1,America/Los_Angeles,,3rd Avenue and James Street
1-510,S Washington St & 3rd Ave S,47.600948,-122.330841,510,,21,,,,1,America/Los_Angeles,,South Washington Street and Third Avenue South
1-515,3rd Ave S & S Main St,47.600239,-122.330376,515,,21,,,,1,America/Los_Angeles,,3rd Avenue South and South Main Street
1-531,3rd Ave & James St,47.602642,-122.331184,531,,21,,,,1,America/Los_Angeles,,3rd Avenue and James Street
1-538,3rd Ave & Columbia St,47.604095,-122.332504,538,,21,,,,1,America/Los_Angeles,,3rd Avenue and Columbia Street
1-539,3rd Ave & Marion St,47.604805,-122.333160,539,,21,,,,1,America/Los_Angeles,,3rd Avenue and Marion Street
1-548,3rd Ave & Madison St,47.605541,-122.333832,548,,21,,,,1,America/Los_Angeles,,3rd Avenue and Madison Street
1-558,3rd Ave & Seneca St,47.607052,-122.335213,558,,21,,,,1,America/Los_Angeles,,3rd Avenue and Seneca Street
1-570,3rd Ave & Union St,47.608688,-122.336700,570,,21,,,,1,America/Los_Angeles,,3rd Avenue and Union Street
1-57330,108th Ave SE & SE 201st St,47.422317,-122.197159,57330,,24,,,,2,America/Los_Angeles,,One Hundred Eighth Avenue Southeast and Southeast 201st Street
1-575,3rd Ave & Pike St,47.609642,-122.337585,575,,21,,,,1,America/Los_Angeles,,3rd Avenue and Pike Street
1-590,3rd Ave & Pine St,47.611137,-122.338951,590,,21,,,,1,America/Los_Angeles,,3rd Avenue and Pine Street
1-600,3rd Ave & Virginia St,47.612995,-122.341743,600,,21,,,,1,America/Los_Angeles,,3rd Avenue and Virginia Street
1-605,3rd Ave & Bell St,47.615120,-122.345337,605,,21,,,,1,America/Los_Angeles,,3rd Avenue and Bell Street
1-619,4th Ave S & S Jackson St,47.599827,-122.328972,619,,21,,,,1,America/Los_Angeles,,4th Avenue South and South Jackson Street
1-620,4th Ave S & S Jackson St,47.598812,-122.328903,620,,1,,,,1,America/Los_Angeles,,4th Avenue South and South Jackson Street
1-625,S Washington St & 4th Ave S,47.600803,-122.329048,625,,21,,,,1,America/Los_Angeles,,South Washington Street and Fourth Avenue South
1-626,S Washington St & 5th Ave S,47.600803,-122.327942,626,,21,,,,1,America/Los_Angeles,,South Washington St and 5th Ave South
1-628,4th Ave S & S Washington St,47.601311,-122.328903,628,,21,,,,1,America/Los_Angeles,,4th Avenue South and South Washington Street
1-640,4th Ave & James St,47.603012,-122.329979,640,,21,,,,1,America/Los_Angeles,,4th Avenue and James Street
1-648,4th Ave & Cherry St,47.604321,-122.331169,648,,21,,,,1,America/Los_Angeles,,4th Avenue and Cherry Street
1-660,4th Ave & Madison St,47.606007,-122.332710,660,,21,,,,1,America/Los_Angeles,,4th Avenue and Madison Street
1-670,4th Ave & Seneca St,47.607498,-122.334076,670,,21,,,,1,America/Los_Angeles,,4th Avenue and Seneca Street
1-691,4th Ave & Union St,47.609161,-122.335609,691,,21,,,,1,America/Los_Angeles,,4th Avenue and Union Street
1-700,4th Ave & Pike St,47.610951,-122.337250,700,,21,,,,1,America/Los_Angeles,,4th Avenue and Pike Street
1-720,4th Ave & Stewart St,47.612667,-122.339203,720,,21,,,,1,America/Los_Angeles,,4th Avenue and Stewart Street
1-730,4th Ave & Lenora St,47.614151,-122.341728,730,,21,,,,1,America/Los_Angeles,,4th Avenue and Lenora Street
1-760,5th Ave & Pine St,47.611725,-122.336662,760,,21,,,,1,America/Los_Angeles,,5th Avenue and Pine Street
1-790,5th Ave & Seneca St,47.608177,-122.333405,790,,21,,,,1,America/Los_Angeles,,5th Avenue and Seneca Street
1-800,5th Ave & Spring St,47.606964,-122.332291,800,,21,,,,1,America/Los_Angeles,,5th Avenue and Spring Street
1-810,5th Ave & Marion St,47.605831,-122.331261,810,,21,,,,1,America/Los_Angeles,,5th Avenue and Marion Street
1-820,5th Ave & Jefferson St,47.603092,-122.328766,820,,21,,,,1,America/Los_Angeles,,5th Avenue and Jefferson Street
1-844,5th Ave S & S Weller St,47.597740,-122.327782,844,,1,,,,1,America/Los_Angeles,,5th Avenue South and South Weller Street
1-880,Virginia St & 6th Ave,47.614227,-122.338394,880,,21,,,,1,America/Los_Angeles,,Virginia Street and Sixth Avenue
1-900,Virginia St & 9th Ave,47.616547,-122.335388,900,,1,,,,1,America/Los_Angeles,,Virginia Street and 9th Avenue
1-905,Stewart St & Yale Ave N,47.619019,-122.330170,905,,1,,,,1,America/Los_Angeles,,Stewart Street and Yale Avenue North
1-940,Stewart St & 9th Ave,47.615704,-122.334457,940,,1,,,,1,America/Los_Angeles,,Stewart Street and 9th Avenue
1-950,Stewart St & 7th Ave,47.614460,-122.336075,950,,1,,,,1,America/Los_Angeles,,Stewart Street and Seventh Avenue
1-970,Stewart St & 4th Ave,47.611992,-122.339272,970,,21,,,,1,America/Los_Angeles,,Stewart Street and Fourth Avenue
1-992,Howell St & 9th Ave,47.614540,-122.333382,992,,1,,,,1,America/Los_Angeles,,Howell Street and 9th Avenue
1-997,6th Ave & Union St,47.610092,-122.333382,997,,21,,,,1,America/Los_Angeles,,6th Avenue and Union Street
10005,40th Ave NE & NE 51st St,47.665886,-122.284897,10005,,1,,,,1,America/Los_Angeles,,40th Avenue Northeast and Northeast 51st Street
10010,NE 55th St & 39th Ave NE,47.668579,-122.285667,10010,,1,,,,1,America/Los_Angeles,,Northeast 55th Street and 39th Avenue Northeast
10020,NE 55th St & 37th Ave NE,47.668579,-122.288300,10020,,1,,,,1,America/Los_Angeles,,Northeast 55th Street and 37th Avenue Northeast
10030,NE 55th St & 35th Ave NE,47.668579,-122.290512,10030,,1,,,,1,America/Los_Angeles,,Northeast 55th Street and 35th Avenue Northeast
10040,NE 55th St & 33rd Ave NE,47.668583,-122.293015,10040,,1,,,,1,America/Los_Angeles,,Northeast 55th Street and 33rd Avenue Northeast
10050,NE 55th St & 30th Ave NE,47.668591,-122.295448,10050,,1,,,,1,America/Los_Angeles,,Northeast 55th Street and 30th Avenue Northeast
10060,NE 55th St & 27th Ave NE,47.668594,-122.298859,10060,,1,,,,1,America/Los_Angeles,,Northeast 55th Street and 27th Avenue Northeast
10070,NE 55th St & 25th Ave NE,47.668594,-122.300980,10070,,1,,,,1,America/Los_Angeles,,Northeast 55th Street and 25th Avenue Northeast
10083,Ravenna Ave NE & Ravenna Pl NE,47.668480,-122.303780,10083,,1,,,,1,America/Los_Angeles,,Ravenna Avenue Northeast and Ravenna Place Northeast
10100,NE Ravenna Blvd & Park Rd NE,47.669552,-122.305405,10100,,1,,,,1,America/Los_Angeles,,Northeast Ravenna Boulevard and Park Road Northeast
10110,20th Ave NE & NE 55th St,47.668274,-122.306580,10110,,1,,,,1,America/Los_Angeles,,20th Avenue Northeast and Northeast 55th Street
10120,20th Ave NE & NE 52nd St,47.666283,-122.306602,10120,,1,,,,1,America/Los_Angeles,,20th Avenue Northeast and Northeast 52nd Street
10130,NE 50th St & 19th Ave NE,47.664928,-122.307114,10130,,1,,,,1,America/Los_Angeles,,Northeast 50th Street and 19th Avenue Northeast
10145,NE 50th St & 16th Ave NE,47.664959,-122.311172,10145,,1,,,,1,America/Los_Angeles,,Northeast 50th Street and 16th Avenue Northeast
10170,Fairview Ave E & E Nelson Pl,47.630054,-122.329338,10170,,1,,,,1,America/Los_Angeles,,Fairview Avenue East and East Nelson Place
10190,Fairview Ave N & Aloha St,47.626751,-122.333542,10190,,1,,,,1,America/Los_Angeles,,Fairview Avenue North and Aloha Street
10210,Fairview Ave N & Mercer St,47.623562,-122.334450,10210,,1,,,,1,America/Los_Angeles,,Fairview Avenue North and Mercer Street
10225,Fairview Ave N & Thomas St,47.620586,-122.334435,10225,,1,,,,1,America/Los_Angeles,,Fairview Avenue North and Thomas Street
10240,Boren Ave & Virginia St,47.617500,-122.333817,10240,,1,,,,1,America/Los_Angeles,,Boren Avenue and Virginia Street
10280,Fairview Ave & Denny Way,47.618874,-122.334198,10280,,1,,,,1,America/Los_Angeles,,Fairview Avenue and Denny Way
10305,Fairview Ave N & Harrison St,47.622276,-122.334229,10305,,1,,,,1,America/Los_Angeles,,Fairview Avenue North and Harrison Street
10325,Fairview Ave N & Valley St,47.626614,-122.333450,10325,,1,,,,1,America/Los_Angeles,,Fairview Avenue North and Valley Street
10328,Valley St & Fairview Ave N,47.626034,-122.334106,10328,,1,,,,1,America/Los_Angeles,,Valley Street and Fairview Avenue North
10350,Fairview Ave E & Yale Ave N,47.629974,-122.329185,10350,,1,,,,1,America/Los_Angeles,,Fairview Avenue East and Yale Avenue North
10370,NE 50th St & University Way NE,47.664829,-122.312660,10370,,1,,,,1,America/Los_Angeles,,Northeast 50th Street and University Way Northeast
10380,NE 50th St & 16th Ave NE,47.664814,-122.310432,10380,,1,,,,1,America/Los_Angeles,,Northeast 50th Street and 16th Avenue Northeast
10400,20th Ave NE & NE 50th St,47.665028,-122.306404,10400,,1,,,,1,America/Los_Angeles,,20th Avenue Northeast and Northeast 50th Street
10410,20th Ave NE & NE 52nd St,47.666641,-122.306404,10410,,1,,,,1,America/Los_Angeles,,20th Avenue Northeast and Northeast 52nd Street
10420,20th Ave NE & NE 54th St,47.668163,-122.306389,10420,,1,,,,1,America/Los_Angeles,,20th Avenue Northeast and Northeast 54th Street
10430,NE Ravenna Blvd & 21st Ave NE,47.669239,-122.305595,10430,,1,,,,1,America/Los_Angeles,,Northeast Ravenna Boulevard and 21st Avenue Northeast
10445,Ravenna Ave NE & NE 54th St,47.668003,-122.303864,10445,,1,,,,1,America/Los_Angeles,,Ravenna Avenue Northeast and Northeast 54th Street
10460,NE 55th St & 25th Ave NE,47.668449,-122.300217,10460,,1,,,,1,America/Los_Angeles,,Northeast 55th Street and 25th Avenue Northeast
10470,NE 55th St & 27th Ave NE,47.668449,-122.298218,10470,,1,,,,1,America/Los_Angeles,,Northeast 55th Street and 27th Avenue Northeast
10480,NE 55th St & 30th Ave NE,47.668449,-122.295074,10480,,1,,,,1,America/Los_Angeles,,Northeast 55th Street and 30th Avenue Northeast
10490,NE 55th St & 33rd Ave NE,47.668449,-122.292320,10490,,1,,,,1,America/Los_Angeles,,Northeast 55th Street and 33rd Avenue Northeast
10500,NE 55th St & 35th Ave NE,47.668446,-122.290390,10500,,1,,,,1,America/Los_Angeles,,Northeast 55th Street and 35th Avenue Northeast
10510,NE 55th St & 36th Ave NE,47.668446,-122.288803,10510,,1,,,,1,America/Los_Angeles,,Northeast 55th Street and 36th Avenue Northeast
10513,40th Ave NE & NE 46th St,47.661934,-122.284668,10513,,1,,,,1,America/Los_Angeles,,40th Avenue Northeast and Northeast 46th Street
10515,40th Ave NE & NE 50th St,47.665093,-122.284698,10515,,1,,,,1,America/Los_Angeles,,40th Avenue Northeast and Northeast 50th Street
10525,NE 55th St & 40th Ave NE,47.668442,-122.285049,10525,,1,,,,1,America/Los_Angeles,,Northeast 55th Street and 40th Avenue Northeast
10550,NE 55th St & 45th Ave NE,47.669002,-122.279121,10550,,1,,,,1,America/Los_Angeles,,Northeast 55th Street and 45th Avenue Northeast
10560,NE 55th St & Princeton Ave NE,47.669182,-122.275909,10560,,1,,,,1,America/Los_Angeles,,Northeast 55th Street and Princeton Avenue Northeast
10561,Sand Point Way NE & 38th Ave NE,47.661575,-122.286484,10561,,1,,,,1,America/Los_Angeles,,Sand Point Way Northeast and 38th Avenue Northeast
10562,Sand Point Way NE & 40th Ave NE,47.663448,-122.284119,10562,,1,,,,1,America/Los_Angeles,,Sand Point Way Northeast and 40th Avenue Northeast
10564,Sand Point Way NE & NE 50th St,47.664654,-122.282867,10564,,1,,,,1,America/Los_Angeles,,Sand Point Way Northeast and Northeast 50th Street
10566,Sand Point Way NE & NE 52nd St,47.667080,-122.280350,10566,,1,,,,1,America/Los_Angeles,,Sand Point Way Northeast and Northeast 52nd Street
10568,Sand Point Way NE & Princeton Ave NE,47.668194,-122.275978,10568,,1,,,,1,America/Los_Angeles,,Sand Point Way Northeast and Princeton Avenue Northeast
10580,Sand Point Way NE & NE Windermere Rd,47.670261,-122.270485,10580,,1,,,,1,America/Los_Angeles,,Sand Point Way Northeast and Northeast Windermere Road
10600,Sand Point Way NE & NE 61st St,47.672989,-122.266663,10600,,1,,,,1,America/Los_Angeles,,Sand Point Way Northeast and Northeast Sixty First Street
10620,Sand Point Way NE & NE 65th St,47.675976,-122.263428,10620,,1,,,,1,America/Los_Angeles,,Sand Point Way Northeast and Northeast 65th Street
10630,Sand Point Way NE & NE 70th St,47.679737,-122.263519,10630,,1,,,,1,America/Los_Angeles,,Sand Point Way Northeast and Northeast 70th Street
10640,Sand Point Way NE & NE 74th St,47.681759,-122.263565,10640,,1,,,,1,America/Los_Angeles,,Sand Point Way Northeast and Northeast 74th Street
10641,Sand Point Way NE & NE 74th St,47.682404,-122.263573,10641,,1,,,,1,America/Los_Angeles,,Sand Point Way Northeast and Northeast 74th Street
10650,Sand Point Way NE & NE 77th St,47.685005,-122.264465,10650,,1,,,,1,America/Los_Angeles,,Sand Point Way Northeast and Northeast 77th Street
10653,NOAA & Building 1,47.686543,-122.257362,10653,,1,,,,1,America/Los_Angeles,,NOAA and Building One
10654,NE NOAA Dr,47.686150,-122.260803,10654,,1,,,,1,America/Los_Angeles,,Northeast NOAA Drive
10657,NE NOAA Dr & Guard Shack,47.686241,-122.259926,10657,,1,,,,1,America/Los_Angeles,,Northeast NOAA Drive and Guard Shack
10658,NOAA & Building 3,47.686012,-122.255531,10658,,1,,,,1,America/Los_Angeles,,NOAA and Building Three
10680,Sand Point Way NE & Inverness Dr NE,47.692825,-122.270943,10680,,1,,,,1,America/Los_Angeles,,Sand Point Way Northeast and Inverness Drive Northeast
10700,Sand Point Way NE & Matthews Pl NE,47.694523,-122.275177,10700,,1,,,,1,America/Los_Angeles,,Sand Point Way Northeast and Matthews Place Northeast
10710,Sand Point Way NE & NE 93rd St,47.696144,-122.276566,10710,,1,,,,1,America/Los_Angeles,,Sand Point Way Northeast and Northeast 93rd Street
10720,Sand Point Way NE & NE 95th St,47.697235,-122.277443,10720,,1,,,,1,America/Los_Angeles,,Sand Point Way Northeast and Northeast 95th Street
10730,Sand Point Way NE & NE 97th St,47.699093,-122.277634,10730,,1,,,,1,America/Los_Angeles,,Sand Point Way Northeast and Northeast 97th Street
10750,Sand Point Way NE & NE 103rd St,47.703087,-122.277565,10750,,1,,,,1,America/Los_Angeles,,Sand Point Way Northeast and Northeast 103rd Street
10760,Sand Point Way NE & NE 106th St,47.705364,-122.278374,10760,,1,,,,1,America/Los_Angeles,,Sand Point Way Northeast and Northeast One Hundred Sixth Street
10780,Sand Point Way NE & NE 110th St,47.709229,-122.280212,10780,,1,,,,1,America/Los_Angeles,,Sand Point Way Northeast and Northeast One Hundred Tenth Street
10800,Sand Point Way NE & NE 115th St,47.712620,-122.281837,10800,,1,,,,1,America/Los_Angeles,,Sand Point Way Northeast and Northeast 115th Street
10820,Sand Point Way NE & NE 120th St,47.716015,-122.283005,10820,,1,,,,1,America/Los_Angeles,,Sand Point Way Northeast and Northeast One Hundred Twentieth Street
10830,Sand Point Way NE & NE 123rd St,47.717598,-122.283928,10830,,1,,,,1,America/Los_Angeles,,Sand Point Way Northeast and Northeast One Hundred Twenty Third Street
10840,NE 125th St & 39th Ave NE,47.719292,-122.286690,10840,,1,,,,1,America/Los_Angeles,,Northeast 125th Street and 39th Avenue Northeast
10860,NE 125th St & 35th Ave NE,47.719322,-122.291412,10860,,1,,,,1,America/Los_Angeles,,Northeast 125th Street and 35th Avenue Northeast
10870,NE 125th St & 33rd Ave NE,47.719338,-122.293205,10870,,1,,,,1,America/Los_Angeles,,Northeast 125th Street and 33rd Avenue Northeast
10910,12th Ave NE & NE 47th St,47.662281,-122.315475,10910,,1,,,,1,America/Los_Angeles,,12th Avenue Northeast and Northeast 47th Street
10911,U District Station - Bay 3,47.661205,-122.313477,10911,,1,,,,1,America/Los_Angeles,,You District Station - Bay Three
10912,15th Ave NE & NE 43rd St,47.659370,-122.312096,10912,,1,,,,1,America/Los_Angeles,,15th Avenue Northeast and Northeast 43rd Street
10914,15th Ave NE & NE Campus Pkwy,47.656422,-122.312164,10914,,1,,,,1,America/Los_Angeles,,15th Avenue Northeast and Northeast Campus Parkway
10915,Harvard Ave E & Eastlake Ave E,47.649940,-122.321999,10915,,1,,,,1,America/Los_Angeles,,Harvard Avenue East and Eastlake Avenue East
10916,Harvard Ave E & Eastlake Ave E,47.649620,-122.322205,10916,,1,,,,1,America/Los_Angeles,,Harvard Avenue East and Eastlake Avenue East
10917,15th Ave NE & NE 40th St,47.654820,-122.312210,10917,,1,,,,1,America/Los_Angeles,,15th Avenue Northeast and Northeast 40th Street
10920,Harvard Ave E & E Shelby St,47.647007,-122.322205,10920,,1,,,,1,America/Los_Angeles,,Harvard Avenue East and East Shelby Street
10940,10th Ave E & E Roanoke St,47.642799,-122.320160,10940,,1,,,,1,America/Los_Angeles,,10th Avenue East and East Roanoke Street
10950,10th Ave E & E Miller St,47.641163,-122.320160,10950,,1,,,,1,America/Los_Angeles,,10th Avenue East and East Miller Street
10970,10th Ave E & E Newton St,47.637028,-122.320183,10970,,1,,,,1,America/Los_Angeles,,10th Avenue East and East Newton Street
10990,10th Ave E & E Galer St,47.632126,-122.320305,10990,,1,,,,1,America/Los_Angeles,,10th Avenue East and East Galer Street
11010,10th Ave E & E Prospect St,47.628822,-122.320320,11010,,1,,,,1,America/Los_Angeles,,10th Avenue East and East Prospect Street
11011,Broadway  E & E Roy St,47.625515,-122.321220,11011,,1,,,,1,America/Los_Angeles,,Broadway East and East Roy Street
11012,E Aloha St & Broadway  E,47.626766,-122.320961,11012,,1,,,,1,America/Los_Angeles,,East Aloha Street and Broadway East
11025,Boren Ave & Jefferson St,47.606068,-122.322029,11025,,1,,,,1,America/Los_Angeles,,Boren Avenue and Jefferson Street
11030,E Roy St & Broadway  E,47.625267,-122.320702,11030,,1,,,,1,America/Los_Angeles,,East Roy Street and Broadway East
11033,Boren Ave & Marion St,47.608429,-122.324188,11033,,1,,,,1,America/Los_Angeles,,Boren Avenue and Marion Street
11035,Boren Ave & Madison St,47.609634,-122.325294,11035,,1,,,,1,America/Los_Angeles,,Boren Avenue and Madison Street
11040,Broadway  E & E Republican St,47.622894,-122.321014,11040,,1,,,,1,America/Los_Angeles,,Broadway East and East Republican Street
11050,Broadway  E & E Thomas St,47.620815,-122.320992,11050,,1,,,,1,America/Los_Angeles,,Broadway East and East Thomas Street
11060,Broadway & E Denny Way - Bay 4,47.618538,-122.320946,11060,,1,,,,1,America/Los_Angeles,,Broadway and East Denny Way - Bay Four
11070,Broadway & E Pine St,47.616192,-122.320923,11070,,1,,,,1,America/Los_Angeles,,Broadway and East Pine Street
11075,Boren Ave & Seneca St,47.610374,-122.326210,11075,,1,,,,1,America/Los_Angeles,,Boren Avenue and Seneca Street
11080,E Pine St & Broadway,47.615303,-122.321495,11080,,1,,,,1,America/Los_Angeles,,East Pine Street and Broadway
11085,Boren Ave & Madison St,47.608955,-122.324913,11085,,1,,,,1,America/Los_Angeles,,Boren Avenue and Madison Street
11087,Boren Ave & Columbia St,47.607594,-122.323669,11087,,1,,,,1,America/Los_Angeles,,Boren Avenue and Columbia Street
11090,E Pine St & Belmont Ave,47.615288,-122.325127,11090,,1,,,,1,America/Los_Angeles,,East Pine Street and Belmont Avenue
11100,E Pine St & Bellevue Ave,47.615299,-122.327271,11100,,1,,,,1,America/Los_Angeles,,East Pine Street and Bellevue Avenue
11130,Pike St & Convention Pl,47.612369,-122.331360,11130,,21,,,,1,America/Los_Angeles,,Pike Street and Convention Place
11133,Pike St & Minor Ave,47.613785,-122.327957,11133,,1,,,,1,America/Los_Angeles,,Pike Street and Minor Avenue
11140,E Pine St & Summit Ave,47.615158,-122.324638,11140,,1,,,,1,America/Los_Angeles,,East Pine Street and Summit Avenue
11150,E Pine St & Harvard Ave,47.615162,-122.321617,11150,,1,,,,1,America/Los_Angeles,,East Pine Street and Harvard Avenue
11175,Broadway And Denny,47.618053,-122.320946,11175,,1,,,,1,America/Los_Angeles,,Broadway And Denny
11180,Broadway  E & E John St - Bay 3,47.619774,-122.320770,11180,,1,,,,1,America/Los_Angeles,,Broadway East and East John Street - Bay Three
11190,Broadway  E & E Harrison St,47.622196,-122.320816,11190,,1,,,,1,America/Los_Angeles,,Broadway East and East Harrison Street
11191,10th Ave E & E Mercer St,47.623951,-122.319992,11191,,1,,,,1,America/Los_Angeles,,10th Avenue East and East Mercer Street
11200,Broadway  E & E Mercer St,47.624611,-122.320839,11200,,1,,,,1,America/Los_Angeles,,Broadway East and East Mercer Street
11230,10th Ave E & E Prospect St,47.628861,-122.320114,11230,,1,,,,1,America/Los_Angeles,,10th Avenue East and East Prospect Street
11250,10th Ave E & E Galer St,47.632214,-122.320099,11250,,1,,,,1,America/Los_Angeles,,10th Avenue East and East Galer Street
11270,10th Ave E & E Howe St,47.636231,-122.319992,11270,,1,,,,1,America/Los_Angeles,,10th Avenue East and East Howe Street
11290,10th Ave E & E Miller St,47.641067,-122.319969,11290,,1,,,,1,America/Los_Angeles,,10th Avenue East and East Miller Street
11300,E Roanoke St & Broadway  E,47.643261,-122.320747,11300,,1,,,,1,America/Los_Angeles,,East Roanoke Street and Broadway East
11330,Harvard Ave E & E Shelby St,47.647171,-122.321999,11330,,1,,,,1,America/Los_Angeles,,Harvard Avenue East and East Shelby Street
11352,15th Ave NE & NE 42nd St,47.658668,-122.311905,11352,,1,,,,1,America/Los_Angeles,,15th Avenue Northeast and Northeast 42nd Street
11356,NE 45th St & 17th Ave NE,47.661327,-122.310120,11356,,1,,,,1,America/Los_Angeles,,Northeast 45th Street and 17th Avenue Northeast
11357,NE 45th St & 20th Ave NE,47.661327,-122.306923,11357,,1,,,,1,America/Los_Angeles,,Northeast 45th Street and 20th Avenue Northeast
11358,U District Station - Bay 2,47.661339,-122.313614,11358,,1,,,,1,America/Los_Angeles,,You District Station - Bay Two
11370,15th Ave E & E Galer St,47.632500,-122.312607,11370,,1,,,,1,America/Los_Angeles,,15th Avenue East and East Galer Street
11390,15th Ave E & E Prospect St,47.628479,-122.312668,11390,,1,,,,1,America/Los_Angeles,,15th Avenue East and East Prospect Street
11400,15th Ave E & E Aloha St,47.626682,-122.312668,11400,,1,,,,1,America/Los_Angeles,,15th Avenue East and East Aloha Street
11410,15th Ave E & E Roy St,47.625027,-122.312698,11410,,1,,,,1,America/Los_Angeles,,15th Avenue East and East Roy Street
11430,15th Ave E & E Republican St,47.622894,-122.312737,11430,,1,,,,1,America/Los_Angeles,,15th Avenue East and East Republican Street
11480,E Pine St & 15th Ave,47.615356,-122.313255,11480,,1,,,,1,America/Los_Angeles,,East Pine Street and 15th Avenue
11490,E Pine St & 13th Ave,47.615345,-122.315910,11490,,1,,,,1,America/Los_Angeles,,East Pine Street and 13th Avenue
11520,E Pine St & 12th Ave,47.615200,-122.316483,11520,,1,,,,1,America/Los_Angeles,,East Pine Street and 12th Avenue
11535,E Pine St & 15th Ave,47.615212,-122.311852,11535,,1,,,,1,America/Los_Angeles,,East Pine Street and 15th Avenue
11565,15th Ave E & E Thomas St,47.620773,-122.312607,11565,,1,,,,1,America/Los_Angeles,,15th Avenue East and East Thomas Street
11566,15th Ave E & E Thomas St,47.620644,-122.312805,11566,,1,,,,1,America/Los_Angeles,,15th Avenue East and East Thomas Street
11567,15th Ave E & E Denny Way,47.618794,-122.312645,11567,,1,,,,1,America/Los_Angeles,,15th Avenue East and East Denny Way
11568,15th Ave & E Denny Way,47.618301,-122.312851,11568,,1,,,,1,America/Los_Angeles,,15th Avenue and East Denny Way
11569,15th Ave & E Pine St,47.615700,-122.312668,11569,,1,,,,1,America/Los_Angeles,,15th Avenue and East Pine Street
11570,15th Ave E & E Republican St,47.622963,-122.312538,11570,,1,,,,1,America/Los_Angeles,,15th Avenue East and East Republican Street
11590,15th Ave E & E Roy St,47.625423,-122.312492,11590,,1,,,,1,America/Los_Angeles,,15th Avenue East and East Roy Street
11600,15th Ave E & E Aloha St,47.627098,-122.312469,11600,,1,,,,1,America/Los_Angeles,,15th Avenue East and East Aloha Street
11610,15th Ave E & E Prospect St,47.628902,-122.312454,11610,,1,,,,1,America/Los_Angeles,,15th Avenue East and East Prospect Street
11620,15th Ave E & E Highland Dr,47.630833,-122.312424,11620,,1,,,,1,America/Los_Angeles,,15th Avenue East and East Highland Dr
11630,Grandview Pl E & E Galer St,47.632523,-122.311821,11630,,1,,,,1,America/Los_Angeles,,Grandview Place East and East Galer Street
11640,Grandview Pl E & E Garfield St,47.634079,-122.311798,11640,,1,,,,1,America/Los_Angeles,,Grandview Place East and East Garfield Street
11680,Mount Rainier Dr S & S Hanford St,47.575657,-122.284843,11680,,1,,,,1,America/Los_Angeles,,Mount Rainier Drive South and South Hanford Street
11690,Mount Rainier Dr S & S Ridgeway Pl,47.576538,-122.286240,11690,,1,,,,1,America/Los_Angeles,,Mount Rainier Drive South and South Ridgeway Place
11700,S Mcclellan St & Lake Park Dr S,47.578407,-122.288605,11700,,1,,,,1,America/Los_Angeles,,South Mcclellan Street and Lake Park Drive South
11720,S Mcclellan St & 31st Ave S,47.578411,-122.292671,11720,,1,,,,1,America/Los_Angeles,,South Mcclellan Street and 31st Avenue South
11730,31st Ave S & S Lander St,47.579861,-122.292908,11730,,1,,,,1,America/Los_Angeles,,31st Avenue South and South Lander Street
11750,31st Ave S & S College St,47.582707,-122.292892,11750,,1,,,,1,America/Los_Angeles,,31st Avenue South and South College Street
11770,31st Ave S & S Plum St,47.585098,-122.292908,11770,,1,,,,1,America/Los_Angeles,,31st Avenue South and South Plum Street
11790,31st Ave S & S Massachusetts St,47.588161,-122.292442,11790,,1,,,,1,America/Los_Angeles,,31st Avenue South and South Massachusetts Street
11800,31st Ave S & S Day St,47.590591,-122.292305,11800,,1,,,,1,America/Los_Angeles,,31st Avenue South and South Day Street
11820,31st Ave S & S Norman St,47.593506,-122.292656,11820,,1,,,,1,America/Los_Angeles,,31st Avenue South and South Norman Street
11840,31st Ave S & S Dearborn St,47.595921,-122.292603,11840,,1,,,,1,America/Los_Angeles,,31st Avenue South and South Dearborn Street
11860,31st Ave S & S King St,47.597908,-122.292519,11860,,1,,,,1,America/Los_Angeles,,31st Avenue South and South King Street
11870,S Jackson St & 30th Ave S,47.599251,-122.293640,11870,,1,,,,1,America/Los_Angeles,,South Jackson Street and 30th Avenue South
11880,S Jackson St & 28th Ave S,47.599281,-122.296005,11880,,1,,,,1,America/Los_Angeles,,South Jackson Street and 28th Avenue South
11890,S Jackson St & Martin L King Jr Way S,47.599304,-122.297752,11890,,1,,,,1,America/Los_Angeles,,South Jackson Street and Martin Luther King Jr Way South
11910,S Jackson St & 23rd Ave S,47.599346,-122.301811,11910,,1,,,,1,America/Los_Angeles,,South Jackson Street and 23rd Avenue South
11920,S Jackson St & 20th Pl S,47.599335,-122.304642,11920,,1,,,,1,America/Los_Angeles,,South Jackson Street and 20th Place South
11940,S Jackson St & 18th Ave S,47.599304,-122.309349,11940,,1,,,,1,America/Los_Angeles,,South Jackson Street and 18th Avenue South
11960,S Jackson St & Rainier Ave S,47.599148,-122.313354,11960,,1,,,,1,America/Los_Angeles,,South Jackson Street and Rainier Avenue South
11980,S Jackson St & 18th Ave S,47.599167,-122.309738,11980,,1,,,,1,America/Los_Angeles,,South Jackson Street and 18th Avenue South
11990,S Jackson St & 20th Ave S,47.599190,-122.305893,11990,,1,,,,1,America/Los_Angeles,,South Jackson Street and 20th Avenue South
12010,S Jackson St & 23rd Ave S,47.599220,-122.301430,12010,,1,,,,1,America/Los_Angeles,,South Jackson Street and 23rd Avenue South
12030,S Jackson St & 28th Ave S,47.599148,-122.295952,12030,,1,,,,1,America/Los_Angeles,,South Jackson Street and 28th Avenue South
12040,S Jackson St & 30th Ave S,47.599117,-122.293930,12040,,1,,,,1,America/Los_Angeles,,South Jackson Street and 30th Avenue South
12050,31st Ave S & S King St,47.597744,-122.292740,12050,,1,,,,1,America/Los_Angeles,,31st Avenue South and South King Street
12070,31st Ave S & S Dearborn St,47.595512,-122.292809,12070,,1,,,,1,America/Los_Angeles,,31st Avenue South and South Dearborn Street
12080,31st Ave S & S Norman St,47.593075,-122.292877,12080,,1,,,,1,America/Los_Angeles,,31st Avenue South and South Norman Street
12090,31st Ave S & S Irving St,47.590973,-122.292496,12090,,1,,,,1,America/Los_Angeles,,31st Avenue South and South Irving Street
12110,31st Ave S & S Massachusetts St,47.587872,-122.292648,12110,,1,,,,1,America/Los_Angeles,,31st Avenue South and South Massachusetts Street
12130,31st Ave S & S Plum St,47.584957,-122.293098,12130,,1,,,,1,America/Los_Angeles,,31st Avenue South and South Plum Street
12140,31st Ave S & S Walker St,47.583424,-122.293106,12140,,1,,,,1,America/Los_Angeles,,31st Avenue South and South Walker Street
12160,31st Ave S & S Lander St,47.579422,-122.293098,12160,,1,,,,1,America/Los_Angeles,,31st Avenue South and South Lander Street
12170,S Mcclellan St & 31st Ave S,47.578278,-122.292496,12170,,1,,,,1,America/Los_Angeles,,South Mcclellan Street and 31st Avenue South
12190,S Mcclellan St & S Mount Baker Blvd,47.578274,-122.288712,12190,,1,,,,1,America/Los_Angeles,,South Mcclellan Street and South Mount Baker Boulevard
12200,Mount Rainier Dr S & 37th Pl S,47.576755,-122.286827,12200,,1,,,,1,America/Los_Angeles,,Mount Rainier Drive South and 37th Place South
12210,E Mcgilvra St & 42nd Ave E,47.640774,-122.278122,12210,,1,,,,1,America/Los_Angeles,,East Mcgilvra Street and 42nd Avenue East
12220,42nd Ave E & E Lynn St,47.638863,-122.278534,12220,,1,,,,1,America/Los_Angeles,,42nd Avenue East and East Lynn Street
12230,42nd Ave E & E Newton St,47.636726,-122.278564,12230,,1,,,,1,America/Los_Angeles,,42nd Avenue East and East Newton Street
12240,42nd Ave E & E Madison St,47.635605,-122.278572,12240,,1,,,,1,America/Los_Angeles,,42nd Avenue East and East Madison Street
12250,E Madison St & 41st Ave E,47.634701,-122.279778,12250,,1,,,,1,America/Los_Angeles,,East Madison Street and 41st Avenue East
12260,E Madison St & E Garfield St,47.633572,-122.281433,12260,,1,,,,1,America/Los_Angeles,,East Madison Streetreet and East Garfield Street
12270,E Madison St & 38th Ave E,47.631947,-122.283836,12270,,1,,,,1,America/Los_Angeles,,East Madison Street and 38th Avenue East
12280,E Madison St & 36th Ave E,47.630264,-122.286324,12280,,1,,,,1,America/Los_Angeles,,East Madison Street and 36th Avenue East
12290,E Madison St & 34th Ave E,47.628902,-122.288345,12290,,1,,,,1,America/Los_Angeles,,East Madison Street and 34th Avenue East
12310,E Madison St & Lake Washington Blvd,47.625919,-122.292725,12310,,1,,,,1,America/Los_Angeles,,East Madison Street and Lake Washington Boulevard
12340,E Madison St & 25th Ave E,47.620869,-122.300186,12340,,1,,,,1,America/Los_Angeles,,East Madison Street and 25th Avenue East
12353,E Madison St & 19th Ave,47.616547,-122.308052,12353,,1,,,,1,America/Los_Angeles,,East Madison Street and 19th Avenue
12373,E Madison St & 18th Ave,47.616230,-122.308426,12373,,1,,,,1,America/Los_Angeles,,East Madison Street and 18th Avenue
12390,E Madison St & 29th Ave E,47.624065,-122.295189,12390,,1,,,,1,America/Los_Angeles,,East Madison Street and 29th Avenue East
12400,E Madison St & Lake Washington Blvd,47.626152,-122.292099,12400,,1,,,,1,America/Los_Angeles,,E Madison Street and Lake Washington Boulevard
12410,E Madison St & 33rd Ave E,47.628185,-122.289093,12410,,1,,,,1,America/Los_Angeles,,East Madison Street and 33rd Avenue East
12420,E Madison St & 36th Ave E,47.629940,-122.286514,12420,,1,,,,1,America/Los_Angeles,,East Madison Street and 36th Avenue East
12430,E Madison St & 38th Ave E,47.631443,-122.284302,12430,,1,,,,1,America/Los_Angeles,,East Madison Street and 38th Avenue East
12440,E Madison St & 39th Ave E,47.632427,-122.282822,12440,,1,,,,1,America/Los_Angeles,,East Madison Street and 39th Avenue East
12450,E Madison St & 41st Ave E,47.634331,-122.280022,12450,,1,,,,1,America/Los_Angeles,,East Madison Street and 41st Avenue East
12460,43rd Ave E & E Blaine St,47.634884,-122.277046,12460,,1,,,,1,America/Los_Angeles,,43rd Avenue East and East Blaine Street
12470,43rd Ave E & E Madison St,47.636631,-122.277016,12470,,1,,,,1,America/Los_Angeles,,43rd Avenue East and East Madison Street
12479,Martin L King Jr Way S & S Irving St,47.590015,-122.297630,12479,,1,,,,1,America/Los_Angeles,,Martin Luther King Jr Way South and South Irving Street
12480,43rd Ave E & E Lynn St,47.639088,-122.276993,12480,,1,,,,1,America/Los_Angeles,,43rd Avenue East and East Lynn Street
12484,Martin L King Jr Way S & S Hill St,47.584259,-122.298248,12484,,1,,,,1,America/Los_Angeles,,Martin Luther King Jr Way South and South Hill Street
12485,S Walker St & 25th Ave S,47.583714,-122.299629,12485,,1,,,,1,America/Los_Angeles,,South Walker Street and 25th Avenue South
12486,Martin L King Jr Way S & S Bayview St,47.581001,-122.296921,12486,,1,,,,1,America/Los_Angeles,,Martin Luther King Jr Way South and South Bayview Street
12487,Martin L King Jr Way S & S Massachusetts St,47.587997,-122.298195,12487,,1,,,,1,America/Los_Angeles,,Martin Luther King Jr Way South and South Massachusetts Street
12493,S Massachusetts St & 26th Ave S,47.588386,-122.298805,12493,,1,,,,1,America/Los_Angeles,,South Massachusetts Street and 26th Avenue South
12496,S Plum St & 25th Ave S,47.585411,-122.300079,12496,,1,,,,1,America/Los_Angeles,,South Plum Street and 25th Avenue South
12497,Martin L King Jr Way S & S Massachusetts St,47.588734,-122.297821,12497,,1,,,,1,America/Los_Angeles,,Martin Luther King Jr Way South and South Massachusetts Street
12500,26th Ave S & S Norman St,47.593162,-122.298958,12500,,1,,,,2,America/Los_Angeles,,26th Avenue South and South Norman Street
12520,S Dearborn St & 26th Ave S,47.595627,-122.299423,12520,,1,,,,1,America/Los_Angeles,,South Dearborn Street and 26th Avenue South
12532,23rd Ave S & S Lane St,47.596710,-122.302124,12532,,1,,,,1,America/Los_Angeles,,23rd Avenue South and South Lane Street
12550,23rd Ave S & S Jackson St,47.599697,-122.302124,12550,,1,,,,1,America/Los_Angeles,,23rd Avenue South and South Jackson Street
12560,23rd Ave & E Yesler Way,47.601894,-122.302299,12560,,1,,,,1,America/Los_Angeles,,23rd Avenue and East Yesler Way
12600,23rd Ave & E Jefferson St,47.605900,-122.302887,12600,,1,,,,1,America/Los_Angeles,,23rd Avenue and East Jefferson Street
12630,23rd Ave S & E Yesler Way,47.601257,-122.302361,12630,,1,,,,1,America/Los_Angeles,,23rd Avenue South and East Yesler Way
12640,23rd Ave S & S Jackson St,47.598976,-122.302315,12640,,1,,,,1,America/Los_Angeles,,23rd Avenue South and South Jackson Street
12660,S Dearborn St & 24th Ave S,47.595501,-122.301636,12660,,1,,,,1,America/Los_Angeles,,South Dearborn Street and 24th Avenue South
12670,24th Ave S & S Norman St,47.592743,-122.301292,12670,,1,,,,1,America/Los_Angeles,,24th Avenue South and South Norman Street
12690,34th Ave & E Union St,47.612503,-122.289421,12690,,1,,,,1,America/Los_Angeles,,34th Avenue and East Union Street
12700,34th Ave & E Marion St,47.610516,-122.289474,12700,,1,,,,1,America/Los_Angeles,,34th Avenue and East Marion Street
12712,34th Ave & E Cherry St,47.608112,-122.289520,12712,,1,,,,1,America/Los_Angeles,,34th Avenue and East Cherry Street
12720,E Cherry St & 32nd Ave,47.608032,-122.292000,12720,,1,,,,1,America/Los_Angeles,,East Cherry Street and 32nd Avenue
12740,E Cherry St & Martin L King Jr Way,47.608063,-122.296158,12740,,1,,,,1,America/Los_Angeles,,East Cherry Street and Martin Luther King Jr Way
12760,E Cherry St & 24th Ave,47.608070,-122.300499,12760,,1,,,,1,America/Los_Angeles,,East Cherry Street and 24th Avenue
12770,23rd Ave & E Cherry St,47.607712,-122.302879,12770,,1,,,,1,America/Los_Angeles,,23rd Avenue and East Cherry Street
12780,E Jefferson St & 23rd Ave,47.606239,-122.303215,12780,,1,,,,1,America/Los_Angeles,,East Jefferson Street and 23rd Avenue
12790,E Jefferson St & 21st Ave,47.606235,-122.305351,12790,,1,,,,1,America/Los_Angeles,,East Jefferson Street and 21st Avenue
12805,E Jefferson St & 18th Ave,47.606251,-122.309669,12805,,1,,,,1,America/Los_Angeles,,East Jefferson Street and 18th Avenue
12820,E Jefferson St & 15th Ave,47.606266,-122.313126,12820,,1,,,,1,America/Los_Angeles,,East Jefferson Street and 15th Avenue
12840,E Jefferson St & 12th Ave,47.606266,-122.317108,12840,,1,,,,1,America/Los_Angeles,,East Jefferson Street and 12th Avenue
12841,12th Ave & E Alder St,47.604580,-122.316879,12841,,1,,,,1,America/Los_Angeles,,12th Avenue and East Alder Street
12842,12th Ave & E Terrace St,47.605041,-122.316689,12842,,1,,,,1,America/Los_Angeles,,12th Avenue and East Terrace Street
12860,Jefferson St & Broadway,47.606155,-122.321167,12860,,1,,,,1,America/Los_Angeles,,Jefferson Street and Broadway
12880,Jefferson St & 9th Ave,47.605007,-122.323914,12880,,1,,,,1,America/Los_Angeles,,Jefferson Street and 9th Avenue
12890,James St & 8th Ave,47.605187,-122.325813,12890,,1,,,,1,America/Los_Angeles,,James Street and Eighth Avenue
12900,James St & 8th Ave,47.605164,-122.325500,12900,,1,,,,1,America/Los_Angeles,,James Street and Eighth Avenue
12910,9th Ave & Jefferson St,47.604874,-122.324242,12910,,1,,,,1,America/Los_Angeles,,9th Avenue and Jefferson Street
12930,E Jefferson St & Broadway,47.606144,-122.320229,12930,,1,,,,1,America/Los_Angeles,,East Jefferson Street and Broadway
12950,E Jefferson St & 12th Ave,47.606125,-122.316376,12950,,1,,,,1,America/Los_Angeles,,East Jefferson Street and 12th Avenue
12960,E Jefferson St & 14th Ave,47.606125,-122.313560,12960,,1,,,,1,America/Los_Angeles,,East Jefferson Street and 14th Avenue
12980,E Jefferson St & 17th Ave,47.606110,-122.309929,12980,,1,,,,1,America/Los_Angeles,,East Jefferson Street and 17th Avenue
12991,E Jefferson St & 20th Ave,47.606098,-122.305962,12991,,1,,,,1,America/Los_Angeles,,East Jefferson Street and 20th Avenue
13005,21st Ave & E James St,47.607399,-122.304924,13005,,1,,,,1,America/Los_Angeles,,21st Avenue and East James Street
13020,E Cherry St & 23rd Ave,47.607937,-122.302330,13020,,1,,,,1,America/Los_Angeles,,East Cherry Street and 23rd Avenue
13030,E Cherry St & 25th Ave,47.607937,-122.299774,13030,,1,,,,1,America/Los_Angeles,,East Cherry Street and 25th Avenue
13040,E Cherry St & Martin L King Jr Way,47.607929,-122.296364,13040,,1,,,,1,America/Los_Angeles,,East Cherry Street and Martin Luther King Jr Way
13060,E Cherry St & 31st Ave,47.607906,-122.292305,13060,,1,,,,1,America/Los_Angeles,,East Cherry Street and 31st Avenue
13070,E Cherry St & 33rd Ave,47.607883,-122.290253,13070,,1,,,,1,America/Los_Angeles,,East Cherry Street and 33rd Avenue
13080,34th Ave & E Columbia St,47.609474,-122.289299,13080,,1,,,,1,America/Los_Angeles,,34th Avenue and East Columbia Street
13090,E Spring St & 34th Ave,47.611713,-122.290230,13090,,1,,,,1,America/Los_Angeles,,East Spring Street and 34th Avenue
13190,Interlaken Turnback Loop & 19th Ave E,47.632507,-122.307373,13190,,1,,,,1,America/Los_Angeles,,Interlaken Turnback Loop and 19th Avenue East
13200,19th Ave E & E Galer St,47.631897,-122.307327,13200,,1,,,,1,America/Los_Angeles,,19th Avenue East and East Galer Street
13210,19th Ave E & E Highland Dr,47.630436,-122.307358,13210,,1,,,,1,America/Los_Angeles,,19th Avenue East and East Highland Drive
13220,19th Ave E & E Prospect St,47.628494,-122.307373,13220,,1,,,,1,America/Los_Angeles,,19th Avenue East and East Prospect Street
13230,19th Ave E & E Aloha St,47.626652,-122.307411,13230,,1,,,,1,America/Los_Angeles,,19th Avenue East and East Aloha Street
13240,19th Ave E & E Mercer St,47.624195,-122.307396,13240,,1,,,,1,America/Los_Angeles,,19th Avenue East and East Mercer Street
13250,19th Ave E & E Harrison St,47.621902,-122.307426,13250,,1,,,,1,America/Los_Angeles,,19th Avenue East and East Harrison Street
13260,19th Ave E & E John St,47.619457,-122.307465,13260,,1,,,,1,America/Los_Angeles,,19th Avenue East and East John Street
13262,E Union St & 12th Ave,47.612988,-122.317177,13262,,1,,,,1,America/Los_Angeles,,East Union Street and 12th Avenue
13264,Madison St & Boylston Ave,47.610867,-122.321686,13264,,1,,,,1,America/Los_Angeles,,Madison Street and Boylston Avenue
13266,Madison St & Boren Ave,47.609627,-122.324638,13266,,1,,,,1,America/Los_Angeles,,Madison Street and Boren Avenue
13270,19th Ave & E Denny Way,47.618263,-122.307495,13270,,1,,,,1,America/Los_Angeles,,19th Avenue and East Denny Way
13291,Madison St & Boren Ave,47.609425,-122.324745,13291,,1,,,,1,America/Los_Angeles,,Madison Street and Boren Avenue
13310,19th Ave E & E Denny Way,47.618698,-122.307274,13310,,1,,,,1,America/Los_Angeles,,19th Avenue East and East Denny Way
13320,19th Ave E & E John St,47.619873,-122.307259,13320,,1,,,,1,America/Los_Angeles,,19th Avenue East and East John Street
13330,19th Ave E & E Thomas St,47.620682,-122.307251,13330,,1,,,,1,America/Los_Angeles,,19th Avenue East and East Thomas Street
13340,19th Ave E & E Harrison St,47.621860,-122.307236,13340,,1,,,,1,America/Los_Angeles,,19th Avenue East and East Harrison Street
13350,19th Ave E & E Republican St,47.623402,-122.307205,13350,,1,,,,1,America/Los_Angeles,,19th Avenue East and East Republican Street
13360,19th Ave E & E Roy St,47.625469,-122.307220,13360,,1,,,,1,America/Los_Angeles,,19th Avenue East and East Roy Street
13370,19th Ave E & E Aloha St,47.627045,-122.307190,13370,,1,,,,1,America/Los_Angeles,,19th Avenue East and East Aloha Street
13380,19th Ave E & E Prospect St,47.628861,-122.307167,13380,,1,,,,1,America/Los_Angeles,,19th Avenue East and East Prospect Street
13381,19th Ave E & E Highland Dr,47.630806,-122.307152,13381,,1,,,,1,America/Los_Angeles,,19th Avenue East and East Highland Drive
13390,Bellevue Ave E & Bellevue Pl E,47.626289,-122.326691,13390,,1,,,,1,America/Los_Angeles,,Bellevue Avenue East and Bellevue Place East
13410,Bellevue Ave E & E Republican St,47.623188,-122.326698,13410,,1,,,,1,America/Los_Angeles,,Bellevue Avenue East and East Republican Street
13420,Bellevue Ave E & E Thomas St,47.620651,-122.326691,13420,,1,,,,1,America/Los_Angeles,,Bellevue Avenue East and East Thomas Street
13430,Bellevue Ave E & E Denny Way,47.618645,-122.326820,13430,,1,,,,1,America/Los_Angeles,,Bellevue Avenue East and East Denny Way
13441,Bellevue Ave & E Olive Way,47.616734,-122.326889,13441,,1,,,,1,America/Los_Angeles,,Bellevue Avenue and East Olive Way
13460,Bellevue Ave & E Olive St,47.616509,-122.326691,13460,,1,,,,1,America/Los_Angeles,,Bellevue Avenue and East Olive Street
13480,Summit Ave E & E Olive Way,47.619385,-122.325195,13480,,1,,,,1,America/Los_Angeles,,Summit Avenue East and East Olive Way
13500,Summit Ave E & E Harrison St,47.622219,-122.325211,13500,,1,,,,1,America/Los_Angeles,,Summit Avenue East and East Harrison Street
13510,Summit Ave E & E Mercer St,47.624569,-122.325226,13510,,1,,,,1,America/Los_Angeles,,Summit Avenue East and East Mercer Street
13585,15th Ave NW & NW 87th St,47.693008,-122.376740,13585,,1,,,,1,America/Los_Angeles,,15th Avenue NW and NW 87th Street
13600,15th Ave NW & NW 85th St,47.690159,-122.376915,13600,,1,,,,1,America/Los_Angeles,,15th Avenue NW and NW 85th Street
13620,15th Ave NW & NW 80th St,47.686279,-122.376900,13620,,1,,,,1,America/Los_Angeles,,15th Avenue NW and NW 80th Street
13640,15th Ave NW & NW 75th St,47.682991,-122.376892,13640,,1,,,,1,America/Los_Angeles,,15th Avenue NW and NW 75th Street
13660,15th Ave NW & NW 70th St,47.678848,-122.376877,13660,,1,,,,1,America/Los_Angeles,,15th Avenue NW and NW 70th Street
13670,15th Ave NW & NW 65th St,47.676083,-122.376686,13670,,1,,,,1,America/Los_Angeles,,15th Avenue NW and NW 65th Street
13700,15th Ave NW & NW 60th St,47.672436,-122.376312,13700,,1,,,,1,America/Los_Angeles,,15th Avenue NW and NW 60th Street
13721,15th Ave NW & NW Market St,47.668907,-122.376312,13721,,1,,,,1,America/Los_Angeles,,15th Avenue NW and NW Market Street
13760,15th Ave NW & NW Leary Way,47.663143,-122.376480,13760,,1,,,,1,America/Los_Angeles,,15th Avenue NW and NW Leary Way
13770,15th Ave W & W Emerson St,47.653404,-122.376328,13770,,1,,,,1,America/Los_Angeles,,15th Avenue West and West Emerson Street
13775,W Emerson Pl & 21st Ave W,47.655808,-122.383720,13775,,1,,,,1,America/Los_Angeles,,West Emerson Place and 21st Avenue West
13800,15th Ave W & W Dravus St,47.648064,-122.376877,13800,,1,,,,1,America/Los_Angeles,,15th Avenue West and West Dravus Street
13810,15th Ave W & W Armour St,47.644825,-122.376328,13810,,1,,,,1,America/Los_Angeles,,15th Avenue West and West Armour Street
13830,15th Ave W & W Wheeler St,47.640183,-122.376312,13830,,1,,,,1,America/Los_Angeles,,15th Avenue West and West Wheeler Street
13840,15th Ave W & W Armory Way,47.637287,-122.376305,13840,,1,,,,1,America/Los_Angeles,,15th Avenue West and West Armory Way
13870,Elliott Ave W & W Galer St,47.631882,-122.375305,13870,,1,,,,1,America/Los_Angeles,,Elliott Avenue West and West Galer Street
13890,Elliott Ave W & W Prospect St,47.629135,-122.371849,13890,,1,,,,1,America/Los_Angeles,,Elliott Avenue West and West Prospect Street
13910,W Mercer St & 3rd Ave W,47.624531,-122.360809,13910,,1,,,,1,America/Los_Angeles,,West Mercer Street and Third Avenue West
14038,W Mercer St & 3rd Ave W,47.624668,-122.361153,14038,,1,,,,1,America/Los_Angeles,,West Mercer Street and Third Avenue West
14070,Elliott Ave W & W Prospect St,47.629013,-122.371414,14070,,1,,,,1,America/Los_Angeles,,Elliott Avenue West and West Prospect Street
14090,Elliott Ave W & W Galer St,47.632092,-122.375290,14090,,1,,,,1,America/Los_Angeles,,Elliott Avenue West and West Galer Street
14110,15th Ave W & W Newton St,47.637089,-122.376099,14110,,1,,,,1,America/Los_Angeles,,15th Avenue West and West Newton Street
14130,15th Ave W & W Wheeler St,47.640923,-122.376114,14130,,1,,,,1,America/Los_Angeles,,15th Avenue West and West Wheeler Street
14150,15th Ave W & W Armour St,47.644936,-122.376122,14150,,1,,,,1,America/Los_Angeles,,15th Avenue West and West Armour Street
14170,15th Ave W & W Dravus St,47.649162,-122.376045,14170,,1,,,,1,America/Los_Angeles,,15th Avenue West and West Dravus Street
14190,15th Ave W & W Emerson St,47.653942,-122.376122,14190,,1,,,,1,America/Los_Angeles,,15th Avenue West and West Emerson Street
14195,W Emerson Pl & 21st Ave W,47.655296,-122.382843,14195,,1,,,,1,America/Los_Angeles,,West Emerson Place and 21st Avenue West
14200,15th Ave NW & NW Leary Way,47.663437,-122.375977,14200,,1,,,,1,America/Los_Angeles,,15th Avenue NW and NW Leary Way
14230,15th Ave NW & NW Market St,47.668480,-122.376114,14230,,1,,,,1,America/Los_Angeles,,15th Avenue NW and NW Market Street
14250,15th Ave NW & NW 60th St,47.672295,-122.376114,14250,,1,,,,1,America/Los_Angeles,,15th Avenue NW and NW 60th Street
14280,15th Ave NW & NW 65th St,47.676861,-122.376671,14280,,1,,,,1,America/Los_Angeles,,15th Avenue NW and NW 65th Street
14300,15th Ave NW & NW 70th St,47.679874,-122.376671,14300,,1,,,,1,America/Los_Angeles,,15th Avenue NW and NW 70th Street
14320,15th Ave NW & NW 75th St,47.683510,-122.376686,14320,,1,,,,1,America/Los_Angeles,,15th Avenue NW and NW 75th Street
14340,15th Ave NW & NW 80th St,47.687130,-122.376701,14340,,1,,,,1,America/Los_Angeles,,15th Avenue NW and NW 80th Street
14360,15th Ave NW & NW 85th St,47.690956,-122.376709,14360,,1,,,,1,America/Los_Angeles,,15th Avenue NW and NW 85th Street
14960,Alki Ave SW & 61st Ave SW,47.578995,-122.410797,14960,,1,,,,1,America/Los_Angeles,,Alki Avenue Southwest and Sixty First Avenue Southwest
14961,61st Ave SW & SW Stevens St,47.577518,-122.410797,14961,,1,,,,1,America/Los_Angeles,,Sixty First Avenue Southwest and Southwest Stevens Street
14962,61st Ave SW & SW Admiral Way,47.576027,-122.410835,14962,,1,,,,1,America/Los_Angeles,,Sixty First Avenue Southwest and Southwest Admiral Way
14963,SW Admiral Way & 60th Ave SW,47.575817,-122.409019,14963,,1,,,,1,America/Los_Angeles,,Southwest Admiral Way and 60th Avenue Southwest
14970,SW Admiral Way & 59th Ave SW,47.576076,-122.407791,14970,,1,,,,1,America/Los_Angeles,,Southwest Admiral Way and 59th Avenue Southwest
14980,SW Admiral Way & 57th Ave SW,47.577034,-122.405182,14980,,1,,,,1,America/Los_Angeles,,Southwest Admiral Way and 57th Avenue Southwest
15000,SW Admiral Way & SW Stevens St,47.578583,-122.400917,15000,,1,,,,1,America/Los_Angeles,,Southwest Admiral Way and Southwest Stevens Street
15002,SW Admiral Way & 51st Ave SW,47.579189,-122.396996,15002,,1,,,,1,America/Los_Angeles,,Southwest Admiral Way and 51st Avenue Southwest
15030,SW Admiral Way & SW Lander St,47.579529,-122.393799,15030,,1,,,,1,America/Los_Angeles,,Southwest Admiral Way and Southwest Lander Street
15040,SW Admiral Way & 47th Ave SW,47.581158,-122.391571,15040,,1,,,,1,America/Los_Angeles,,Southwest Admiral Way and 47th Avenue Southwest
15050,SW Admiral Way & 45th Ave SW,47.581142,-122.388924,15050,,1,,,,1,America/Los_Angeles,,Southwest Admiral Way and 45th Avenue Southwest
15060,SW Admiral Way & California Ave SW,47.581123,-122.386177,15060,,1,,,,1,America/Los_Angeles,,Southwest Admiral Way and California Avenue Southwest
15070,SW Admiral Way & 41st Ave SW,47.581112,-122.383980,15070,,1,,,,1,America/Los_Angeles,,Southwest Admiral Way and 41st Avenue Southwest
15080,SW Admiral Way & 39th Ave SW,47.581043,-122.380920,15080,,1,,,,1,America/Los_Angeles,,Southwest Admiral Way and 39th Avenue Southwest
15090,SW Admiral Way & Belvidere Ave SW,47.581024,-122.378922,15090,,1,,,,1,America/Los_Angeles,,Southwest Admiral Way and Belvidere Avenue Southwest
15100,SW Admiral Way & SW Olga St,47.580250,-122.376793,15100,,1,,,,1,America/Los_Angeles,,Southwest Admiral Way and Southwest Olga Street
15120,SW Admiral Way & SW City View St,47.573616,-122.373352,15120,,1,,,,1,America/Los_Angeles,,Southwest Admiral Way and Southwest City View Street
15140,SW Spokane St & 26th Ave SW,47.571453,-122.365234,15140,,1,,,,1,America/Los_Angeles,,Southwest Spokane Street and 26th Avenue Southwest
15145,SW Spokane St & Chelan Ave SW,47.571304,-122.362411,15145,,1,,,,1,America/Los_Angeles,,Southwest Spokane Street and Chelan Avenue Southwest
15190,1st Ave S & S Spokane St,47.572342,-122.333992,15190,,1,,,,1,America/Los_Angeles,,1st Avenue South and South Spokane Street
15201,1st Ave S & S Atlantic St,47.589901,-122.334297,15201,,1,,,,1,America/Los_Angeles,,1st Avenue South and South Atlantic Street
15202,1st Ave S & S Holgate St,47.585762,-122.334297,15202,,1,,,,1,America/Los_Angeles,,1st Avenue South and South Holgate Street
15203,1st Ave S & S Stacy St,47.581554,-122.334297,15203,,1,,,,1,America/Los_Angeles,,1st Avenue South and South Stacy Street
15204,Edgar Martinez Dr S & Occidental Ave S,47.590198,-122.333473,15204,,1,,,,1,America/Los_Angeles,,Edgar Martinez Drive South and Occidental Avenue South
15205,1st Ave S & S Hanford St,47.575924,-122.334106,15205,,1,,,,1,America/Los_Angeles,,1st Avenue South and South Hanford Street
15206,1st Ave S & S Stacy St,47.582233,-122.334106,15206,,1,,,,1,America/Los_Angeles,,1st Avenue South and South Stacy Street
15207,1st Ave S & S Holgate St,47.586517,-122.334106,15207,,1,,,,1,America/Los_Angeles,,1st Avenue South and South Holgate Street
15211,1st Ave S & S Walker St,47.583652,-122.334297,15211,,1,,,,1,America/Los_Angeles,,1st Avenue South and South Walker Street
15212,1st Ave S & S Walker St,47.584244,-122.334106,15212,,1,,,,1,America/Los_Angeles,,1st Avenue South and South Walker Street
15230,1st Ave S & S Lander St,47.579681,-122.334106,15230,,1,,,,1,America/Los_Angeles,,1st Avenue South and South Lander Street
15380,1st Ave S & S Lander St,47.579250,-122.334312,15380,,1,,,,1,America/Los_Angeles,,1st Avenue South and South Lander Street
15395,1st Ave S & S Hanford St,47.575752,-122.334312,15395,,1,,,,1,America/Los_Angeles,,1st Avenue South and South Hanford Street
15451,SW Spokane St & Chelan Ave SW,47.571720,-122.363365,15451,,1,,,,1,America/Los_Angeles,,Southwest Spokane Street and Chelan Avenue Southwest
15460,SW Spokane St & 26th Ave SW,47.571712,-122.366165,15460,,1,,,,1,America/Los_Angeles,,Southwest Spokane Street and 26th Avenue Southwest
15480,SW Admiral Way & SW City View St,47.574043,-122.373474,15480,,1,,,,1,America/Los_Angeles,,Southwest Admiral Way and Southwest City View Street
15500,SW Admiral Way & SW Olga St,47.580132,-122.376564,15500,,1,,,,1,America/Los_Angeles,,Southwest Admiral Way and Southwest Olga Street
15521,SW Admiral Way & 38th Ave SW,47.581253,-122.380676,15521,,1,,,,1,America/Los_Angeles,,Southwest Admiral Way and 38th Avenue Southwest
15532,SW Admiral Way & 41st Ave SW,47.581245,-122.384743,15532,,1,,,,1,America/Los_Angeles,,Southwest Admiral Way and 41st Avenue Southwest
15540,SW Admiral Way & California Ave SW,47.581268,-122.386871,15540,,1,,,,1,America/Los_Angeles,,Southwest Admiral Way and California Avenue Southwest
15570,SW Admiral Way & SW Waite St,47.581047,-122.392273,15570,,1,,,,1,America/Los_Angeles,,Southwest Admiral Way and Southwest Waite Street
15580,SW Admiral Way & 49th Ave SW,47.579819,-122.393707,15580,,1,,,,1,America/Los_Angeles,,Southwest Admiral Way and 49th Avenue Southwest
15588,SW Admiral Way & 51st Ave SW,47.579334,-122.397163,15588,,1,,,,1,America/Los_Angeles,,Southwest Admiral Way and 51st Avenue Southwest
15610,SW Admiral Way & SW Lander St,47.578899,-122.400673,15610,,1,,,,1,America/Los_Angeles,,Southwest Admiral Way and Southwest Lander Street
15630,SW Admiral Way & 57th Ave SW,47.577168,-122.405319,15630,,1,,,,1,America/Los_Angeles,,Southwest Admiral Way and 57th Avenue Southwest
15650,SW Admiral Way & 61st Ave SW,47.575974,-122.410660,15650,,1,,,,1,America/Los_Angeles,,Southwest Admiral Way and Sixty First Avenue Southwest
15651,63rd Ave SW & SW Admiral Way,47.576240,-122.413239,15651,,1,,,,1,America/Los_Angeles,,Sixty Third Avenue Southwest and Southwest Admiral Way
15652,63rd Ave SW & Alki Ave SW,47.578209,-122.413185,15652,,1,,,,1,America/Los_Angeles,,Sixty Third Avenue Southwest and Alki Avenue Southwest
16100,Aurora Village Transit Center - Bay 10,47.774242,-122.342407,16100,,18,,,,1,America/Los_Angeles,,Aurora Village Transit Center - Bay Ten
16101,Aurora Village Transit Center - Bay 1,47.774534,-122.341987,16101,,18,,,,1,America/Los_Angeles,,Aurora Village Transit Center - Bay One
16103,Aurora Village Transit Center - Bay 3,47.774535,-122.340975,16103,,18,,,,1,America/Los_Angeles,,Aurora Village Transit Center - Bay Three
16140,Meridian Ave N & N 203rd St,47.775646,-122.335358,16140,,18,,,,1,America/Los_Angeles,,Meridian Avenue North and North Two Hundred Third Street
16160,Meridian Ave N & N 198th St,47.772114,-122.335304,16160,,18,,,,1,America/Los_Angeles,,Meridian Avenue North and North One Hundred Ninety Eighth Street
16170,Meridian Ave N & N 194th St,47.769840,-122.335266,16170,,18,,,,1,America/Los_Angeles,,Meridian Avenue North and North One Hundred Ninety Fourth Street
16180,Meridian Ave N & N 190th St,47.766693,-122.335197,16180,,18,,,,1,America/Los_Angeles,,Meridian Avenue North and North One Hundred Ninetieth Street
16190,Meridian Ave N & N 188th St,47.765369,-122.335167,16190,,18,,,,1,America/Los_Angeles,,Meridian Avenue North and North One Hundred Eighty Eighth Street
16200,Meridian Ave N & N 185th St,47.762920,-122.335114,16200,,18,,,,1,America/Los_Angeles,,Meridian Avenue North and North One Hundred Eighty Fifth Street
16210,Meridian Ave N & N 183rd St,47.761539,-122.335091,16210,,18,,,,1,America/Los_Angeles,,Meridian Avenue North and North One Hundred Eighty Third Street
16220,Meridian Ave N & N 180th St,47.759384,-122.335030,16220,,18,,,,1,America/Los_Angeles,,Meridian Avenue North and North One Hundred Eightieth Street
16230,Meridian Ave N & N 178th St,47.757553,-122.334991,16230,,18,,,,1,America/Los_Angeles,,Meridian Avenue North and North One Hundred Seventy Eighth Street
16240,Meridian Ave N & N 175th St,47.755566,-122.334938,16240,,18,,,,1,America/Los_Angeles,,Meridian Avenue North and North One Hundred Seventy Fifth Street
16250,Meridian Ave N & N 170th St,47.752548,-122.334885,16250,,18,,,,1,America/Los_Angeles,,Meridian Avenue North and North One Hundred Seventieth Street
16260,Meridian Ave N & N 167th St,47.750267,-122.334839,16260,,18,,,,1,America/Los_Angeles,,Meridian Avenue North and North One Hundred Sixty Seventh Street
16270,Meridian Ave N & N 165th St,47.748444,-122.334801,16270,,18,,,,1,America/Los_Angeles,,Meridian Avenue North and North One Hundred Sixty Fifth Street
16280,Meridian Ave N & N 163rd St,47.746639,-122.334747,16280,,18,,,,1,America/Los_Angeles,,Meridian Avenue North and North One Hundred Sixty third Street
16290,Meridian Ave N & N 160th St,47.745289,-122.334709,16290,,18,,,,1,America/Los_Angeles,,Meridian Avenue North and North One Hundred Sixtieth Street
16300,Meridian Ave N & N 158th St,47.743401,-122.334648,16300,,18,,,,1,America/Los_Angeles,,Meridian Avenue North and North 158th Street
16327,Meridian Ave N & N 155th St,47.741100,-122.334579,16327,,18,,,,1,America/Los_Angeles,,Meridian Avenue North and North one fifty fifth street
16329,Meridian Ave N & N 150th St,47.738152,-122.334297,16329,,18,,,,1,America/Los_Angeles,,Meridian Avenue North and North one fiftieth street
16330,Meridian Ave N & N 150th St,47.737575,-122.334473,16330,,18,,,,1,America/Los_Angeles,,Meridian Avenue North and North one fiftieth street
16331,Meridian Ave N & N 148th St,47.736095,-122.334435,16331,,18,,,,1,America/Los_Angeles,,Meridian Avenue North and North one forty eighth street
16390,NE Ravenna Blvd & Woodlawn Ave NE,47.678459,-122.324860,16390,,1,,,,1,America/Los_Angeles,,Northeast Ravenna Boulevard and Woodlawn Avenue Northeast
16400,NE Ravenna Blvd & NE 68th St,47.677311,-122.323807,16400,,1,,,,1,America/Los_Angeles,,Northeast Ravenna Boulevard and Northeast 68th Street
16416,NE 65th St & 8th Ave NE,47.675785,-122.320129,16416,,1,,,,1,America/Los_Angeles,,Northeast 65th Street and Eighth Avenue Northeast
16419,8th Ave NE & NE 64th St,47.675381,-122.319954,16419,,1,,,,1,America/Los_Angeles,,8th Avenue Northeast and Northeast 64th Street
16430,Roosevelt Station - Bay 1,47.675751,-122.316673,16430,,1,,,,1,America/Los_Angeles,,Roosevelt Station - Bay One
16440,Roosevelt Station - Bay 5,47.675457,-122.317467,16440,,1,,,,1,America/Los_Angeles,,Roosevelt Station - Bay Five
16460,Roosevelt Way NE & NE Ravenna Blvd,47.672356,-122.317467,16460,,1,,,,1,America/Los_Angeles,,Roosevelt Way Northeast and Northeast Ravenna Boulevard
16480,Roosevelt Way NE & NE 55th St,47.668396,-122.317467,16480,,1,,,,1,America/Los_Angeles,,Roosevelt Way Northeast and Northeast 55th Street
16515,NE Ravenna Blvd & NE 68th St,47.677872,-122.323586,16515,,1,,,,1,America/Los_Angeles,,Northeast Ravenna Boulevard and Northeast 68th Street
16520,NE Ravenna Blvd & Woodlawn Ave NE,47.678841,-122.324486,16520,,1,,,,1,America/Los_Angeles,,Northeast Ravenna Boulevard and Woodlawn Avenue Northeast
16570,Meridian Ave N & N 145th St,47.733891,-122.334175,16570,,20,,,,1,America/Los_Angeles,,Meridian Avenue North and North One Hundred Forty Fifth Street
1661,7th & Jackson,47.599266,-122.323296,1661,,21,,,,1,America/Los_Angeles,,7th and Jackson
16610,Meridian Ave N & N 155th St,47.741638,-122.334389,16610,,18,,,,1,America/Los_Angeles,,Meridian Avenue North and North one fifty fifth street
16620,Meridian Ave N & N 156th Pl,47.743175,-122.334450,16620,,18,,,,1,America/Los_Angeles,,Meridian Avenue North and North One Hundred Fifty SixthPlace
16630,Meridian Ave N & N 159th St,47.744774,-122.334488,16630,,18,,,,1,America/Los_Angeles,,Meridian Avenue North and North One Hundred Fifty Ninth Street
16640,Meridian Ave N & N 163rd St,47.747055,-122.334557,16640,,18,,,,1,America/Los_Angeles,,Meridian Avenue North and North One Hundred Sixty third Street
16650,Meridian Ave N & N 165th St,47.748962,-122.334610,16650,,18,,,,2,America/Los_Angeles,,Meridian Avenue North and North One Hundred Sixty Fifth Street
16660,Meridian Ave N & N 167th St,47.750801,-122.334641,16660,,18,,,,2,America/Los_Angeles,,Meridian Avenue North and North One Hundred Sixty Seventh Street
16670,Meridian Ave N & N 170th St,47.752296,-122.334663,16670,,18,,,,1,America/Los_Angeles,,Meridian Avenue North and North One Hundred Seventieth Street
16680,Meridian Ave N & N 175th St,47.756298,-122.334763,16680,,18,,,,1,America/Los_Angeles,,Meridian Avenue North and North One Hundred Seventy Fifth Street
16690,Meridian Ave N & N 178th St,47.758083,-122.334801,16690,,18,,,,1,America/Los_Angeles,,Meridian Avenue North and North One Hundred Seventy Eighth Street
16700,Meridian Ave N & N 180th St,47.759907,-122.334839,16700,,18,,,,1,America/Los_Angeles,,Meridian Avenue North and North One Hundred Eightieth Street
1671,12th & Jackson,47.599274,-122.315758,1671,,1,,,,1,America/Los_Angeles,,12th and Jackson
16710,Meridian Ave N & N 183rd St,47.761700,-122.334885,16710,,18,,,,1,America/Los_Angeles,,Meridian Avenue North and North One Hundred Eighty Third Street
1672,12th & Jackson,47.599140,-122.315758,1672,,1,,,,1,America/Los_Angeles,,12th and Jackson
16720,Meridian Ave N & N 185th St,47.763523,-122.334923,16720,,18,,,,1,America/Los_Angeles,,Meridian Avenue North and North One Hundred Eighty Fifth Street
16730,Meridian Ave N & N 187th St,47.765060,-122.334969,16730,,18,,,,1,America/Los_Angeles,,Meridian Avenue North and North One Hundred Eighty Seventh Street
16740,Meridian Ave N & N 190th St,47.767166,-122.335007,16740,,18,,,,1,America/Los_Angeles,,Meridian Avenue North and North One Hundred Ninetieth Street
16750,Meridian Ave N & N 193rd St,47.769440,-122.335060,16750,,18,,,,1,America/Los_Angeles,,Meridian Avenue North and North One Hundred Ninety Third Street
16760,Meridian Ave N & N 198th St,47.772446,-122.335098,16760,,18,,,,1,America/Los_Angeles,,Meridian Avenue North and North One Hundred Ninety Eighth Street
16770,N 200th St & Burke Ave N,47.774242,-122.336700,16770,,18,,,,1,America/Los_Angeles,,North Two Hundredth Street and Burke Avenue North
16800,Meridian Ave N & N 145th St,47.733818,-122.334381,16800,,20,,,,1,America/Los_Angeles,,Meridian Avenue North and North One Hundred Forty Fifth Street
16810,Meridian Ave N & N 143rd St,47.732105,-122.334366,16810,,1,,,,1,America/Los_Angeles,,Meridian Avenue North and North 143rd Street
16830,Meridian Ave N & Roosevelt Way N,47.728809,-122.334320,16830,,1,,,,1,America/Los_Angeles,,Meridian Avenue North and Roosevelt Way North
16840,Meridian Ave N & N 135th St,47.726578,-122.334297,16840,,1,,,,1,America/Los_Angeles,,Meridian Avenue North and North 135th Street
16850,Meridian Ave N & N 133rd St,47.725132,-122.334297,16850,,1,,,,1,America/Los_Angeles,,Meridian Avenue North and North 133rd Street
16860,Meridian Ave N & N 130th St,47.722950,-122.334282,16860,,1,,,,1,America/Los_Angeles,,Meridian Avenue North and North 130th Street
16870,N 128th St & Meridian Ave N,47.722084,-122.334572,16870,,1,,,,1,America/Los_Angeles,,North One Hundred Twenty Eighth Street and Meridian Avenue North
16880,Densmore Ave N & N 128th St,47.721531,-122.337708,16880,,1,,,,1,America/Los_Angeles,,Densmore Avenue North and North One Hundred Twenty Eighth Street
16890,Densmore Ave N & N 125th St,47.719292,-122.338570,16890,,1,,,,1,America/Los_Angeles,,Densmore Avenue North and North 125th Street
16900,Densmore Ave N & N 122nd St,47.717133,-122.337410,16900,,1,,,,1,America/Los_Angeles,,Densmore Avenue North and North 122nd Street
16914,Northwest Hospital,47.713734,-122.336479,16914,,1,,,,1,America/Los_Angeles,,Northwest Hospital
16920,Meridian Ave N & N 120th St,47.716000,-122.334213,16920,,1,,,,1,America/Los_Angeles,,Meridian Avenue North and North One Hundred Twentieth Street
16940,Meridian Ave N & N 115th St,47.711971,-122.334160,16940,,1,,,,1,America/Los_Angeles,,Meridian Avenue North and North 115th Street
16960,Meridian Ave N & N Northgate Way,47.708210,-122.334091,16960,,1,,,,1,America/Los_Angeles,,Meridian Avenue North and North Northgate Way
16980,Meridian Ave N & N 105th St,47.705120,-122.334038,16980,,1,,,,1,America/Los_Angeles,,Meridian Avenue North and North One Hundred Fifth Street
16990,College Way N & N 103rd St,47.703052,-122.334106,16990,,1,,,,1,America/Los_Angeles,,College Way North and North 103rd Street
17010,College Way N & N 97th St,47.699341,-122.335297,17010,,1,,,,1,America/Los_Angeles,,College Way North and North 97th Street
17022,N 92nd St & Corliss Ave N,47.695854,-122.330673,17022,,1,,,,1,America/Los_Angeles,,North 92nd Street and Corliss Avenue North
17024,1st Ave NE & NE 95th St,47.697922,-122.328354,17024,,1,,,,1,America/Los_Angeles,,1st Avenue Northeast and Northeast 95th Street
17040,Wallingford Ave N & N 90th St,47.694248,-122.336578,17040,,1,,,,1,America/Los_Angeles,,Wallingford Avenue North and North 90th Street
17070,Wallingford Ave N & N 82nd St,47.688530,-122.336510,17070,,1,,,,1,America/Los_Angeles,,Wallingford Avenue North and North 82nd Street
17080,Wallingford Ave N & N 80th St,47.687050,-122.336494,17080,,1,,,,1,America/Los_Angeles,,Wallingford Avenue North and North 80th Street
17081,Wallingford Ave N & East Green Lake Dr N,47.685795,-122.336861,17081,,1,,,,1,America/Los_Angeles,,Wallingford Avenue North and East Green Lake Drive North
17170,Woodlawn Ave NE & 5th Ave NE,47.678181,-122.325783,17170,,1,,,,1,America/Los_Angeles,,Woodlawn Avenue Northeast and Fifth Avenue Northeast
17180,Woodlawn Ave NE & 1st Ave NE,47.677593,-122.328682,17180,,1,,,,1,America/Los_Angeles,,Woodlawn Avenue Northeast and First Avenue Northeast
17209,Woodlawn Ave N & N 63rd St,47.674576,-122.333145,17209,,1,,,,1,America/Los_Angeles,,Woodlawn Avenue North and North Sixty Third Street
17230,Kirkwood Pl N & N 59th St,47.671562,-122.333519,17230,,1,,,,1,America/Los_Angeles,,Kirkwood Place North and North 59th Street
17250,N 56th St & Keystone Pl N,47.668751,-122.332848,17250,,1,,,,1,America/Los_Angeles,,North Fifty Sixth Street and Keystone Place North
17260,Meridian Ave N & N 54th St,47.667709,-122.333801,17260,,1,,,,1,America/Los_Angeles,,Meridian Avenue North and North 54th Street
17280,Meridian Ave N & N 50th St,47.664829,-122.333832,17280,,1,,,,1,America/Los_Angeles,,Meridian Avenue North and North 50th Street
17300,Meridian Ave N & N 46th St,47.661941,-122.333847,17300,,1,,,,1,America/Los_Angeles,,Meridian Avenue North and North 46th Street
17310,N 45th St & Wallingford Ave N,47.661461,-122.335556,17310,,1,,,,1,America/Los_Angeles,,North 45th Street and Wallingford Avenue North
17410,N 45th St & Wallingford Ave N,47.661316,-122.335442,17410,,1,,,,1,America/Los_Angeles,,North 45th Street and Wallingford Avenue North
17420,Meridian Ave N & N 45th St,47.661663,-122.333626,17420,,1,,,,1,America/Los_Angeles,,Meridian Avenue North and North 45th Street
17440,Meridian Ave N & N 49th St,47.663933,-122.333626,17440,,1,,,,1,America/Los_Angeles,,Meridian Avenue North and North 49th Street
17460,Meridian Ave N & N 53rd St,47.667378,-122.333595,17460,,1,,,,1,America/Los_Angeles,,Meridian Avenue North and North 53rd Street
17470,N 56th St & Keystone Pl N,47.668667,-122.332603,17470,,1,,,,1,America/Los_Angeles,,North Fifty Sixth Street and Keystone Place North
17490,Kirkwood Pl N & N 59th St,47.671535,-122.333275,17490,,1,,,,1,America/Los_Angeles,,Kirkwood Place North and North 59th Street
17510,Woodlawn Ave N & N 63rd St,47.674355,-122.333160,17510,,1,,,,1,America/Los_Angeles,,Woodlawn Avenue North and North Sixty Third Street
17530,Woodlawn Ave NE & Sunnyside Ave N,47.677475,-122.329132,17530,,1,,,,1,America/Los_Angeles,,Woodlawn Avenue Northeast and Sunnyside Avenue North
17640,Wallingford Ave N & N 80th St,47.687351,-122.336304,17640,,1,,,,1,America/Los_Angeles,,Wallingford Avenue North and North 80th Street
17650,Wallingford Ave N & N 82nd St,47.688904,-122.336319,17650,,1,,,,1,America/Los_Angeles,,Wallingford Avenue North and North 82nd Street
17651,Wallingford Ave N & N 85th St,47.690922,-122.336342,17651,,1,,,,1,America/Los_Angeles,,Wallingford Avenue North and North 85th Street
17680,Wallingford Ave N & N 90th St,47.694363,-122.336388,17680,,1,,,,1,America/Los_Angeles,,Wallingford Avenue North and North 90th Street
17694,North Seattle College,47.697823,-122.332741,17694,,1,,,,1,America/Los_Angeles,,North Seattle College
17695,North Seattle College,47.697693,-122.332558,17695,,1,,,,1,America/Los_Angeles,,North Seattle College
17697,1st Ave NE & NE 95th St,47.697735,-122.328560,17697,,1,,,,1,America/Los_Angeles,,1st Avenue Northeast and Northeast 95th Street
17698,N 92nd St & Corliss Ave N,47.695995,-122.330513,17698,,1,,,,1,America/Los_Angeles,,North 92nd Street and Corliss Avenue North
17710,College Way N & N 97th St,47.699268,-122.334908,17710,,1,,,,1,America/Los_Angeles,,College Way North and North 97th Street
17730,College Way N & N 103rd St,47.703201,-122.333794,17730,,1,,,,1,America/Los_Angeles,,College Way North and North 103rd Street
17740,Meridian Ave N & N 105th St,47.704758,-122.333832,17740,,1,,,,1,America/Los_Angeles,,Meridian Avenue North and North One Hundred Fifth Street
17755,N Northgate Way & Meridian Ave N,47.708534,-122.334610,17755,,1,,,,1,America/Los_Angeles,,North Northgate Way and Meridian Avenue North
17760,Meridian Ave N & N Northgate Way,47.709003,-122.333900,17760,,1,,,,1,America/Los_Angeles,,Meridian Avenue North and North Northgate Way
17780,Meridian Ave N & N 115th St,47.712456,-122.333969,17780,,1,,,,1,America/Los_Angeles,,Meridian Avenue North and North 115th Street
17800,Meridian Ave N & N 120th St,47.716145,-122.334023,17800,,1,,,,1,America/Los_Angeles,,Meridian Avenue North and North One Hundred Twentieth Street
17820,N 122nd St & Burke Ave N,47.717190,-122.336456,17820,,1,,,,1,America/Los_Angeles,,North 122nd Street and Burke Avenue North
17830,Densmore Ave N & N 125th St,47.719494,-122.338463,17830,,1,,,,1,America/Los_Angeles,,Densmore Avenue North and North 125th Street
17840,Densmore Ave N & N 128th St,47.721878,-122.337318,17840,,1,,,,1,America/Los_Angeles,,Densmore Avenue North and North One Hundred Twenty Eighth Street
17850,N 128th St & Meridian Ave N,47.721947,-122.334526,17850,,1,,,,1,America/Los_Angeles,,North One Hundred Twenty Eighth Street and Meridian Avenue North
17860,Meridian Ave N & N 130th St,47.723156,-122.334091,17860,,1,,,,1,America/Los_Angeles,,Meridian Avenue North and North 130th Street
17870,Meridian Ave N & N 133rd St,47.725273,-122.334091,17870,,1,,,,1,America/Los_Angeles,,Meridian Avenue North and North 133rd Street
17880,Meridian Ave N & N 135th St,47.727169,-122.334106,17880,,1,,,,1,America/Los_Angeles,,Meridian Avenue North and North 135th Street
17890,Meridian Ave N & Roosevelt Way N,47.728920,-122.334122,17890,,1,,,,1,America/Los_Angeles,,Meridian Avenue North and Roosevelt Way North
17900,Meridian Ave N & N 140th St,47.730442,-122.334129,17900,,1,,,,1,America/Los_Angeles,,Meridian Avenue North and North One Hundred Fortieth Street
17950,View Ave NW & Loyal Ave NW,47.695312,-122.401215,17950,,1,,,,1,America/Los_Angeles,,View Avenue Northwest and Loyal Avenue Northwest
17951,Loyal Ave NW & Golden Gardens Dr NW,47.693848,-122.399498,17951,,1,,,,1,America/Los_Angeles,,Loyal Avenue Northwest and Golden Gardens Drive Northwest
17952,Golden Gardens Dr NW & NW 87th St,47.692368,-122.398811,17952,,1,,,,2,America/Los_Angeles,,Golden Gardens Drive Northwest and Northwest 87th Street
17960,32nd Ave NW & NW 85th St,47.690132,-122.398415,17960,,1,,,,1,America/Los_Angeles,,32nd Avenue Northwest and Northwest 85th Street
17970,32nd Ave NW & NW 80th St,47.688011,-122.398407,17970,,1,,,,1,America/Los_Angeles,,32nd Avenue Northwest and Northwest 80th Street
17980,32nd Ave NW & NW 80th St,47.686352,-122.398392,17980,,1,,,,1,America/Los_Angeles,,32nd Avenue Northwest and Northwest 80th Street
17990,32nd Ave NW & NW 77th St,47.684975,-122.398415,17990,,1,,,,1,America/Los_Angeles,,32nd Avenue Northwest and Northwest 77th Street
18000,32nd Ave NW & NW 75th St,47.682880,-122.398514,18000,,1,,,,1,America/Los_Angeles,,32nd Avenue Northwest and Northwest 75th Street
18010,32nd Ave NW & NW 73rd St,47.681679,-122.398499,18010,,1,,,,1,America/Los_Angeles,,32nd Avenue Northwest and Northwest 73rd Street
18020,32nd Ave NW & NW 72nd St,47.680710,-122.398499,18020,,1,,,,1,America/Los_Angeles,,32nd Avenue Northwest and Northwest 72nd Street
18030,32nd Ave NW & NW 70th St,47.679245,-122.398483,18030,,1,,,,1,America/Los_Angeles,,32nd Avenue Northwest and Northwest 70th Street
18040,32nd Ave NW & NW 67th St,47.677048,-122.398476,18040,,1,,,,1,America/Los_Angeles,,32nd Avenue Northwest and Northwest Sixty Seventh Street
18041,32nd Ave NW & NW 64th St,47.674480,-122.398483,18041,,1,,,,1,America/Los_Angeles,,32nd Avenue Northwest and Northwest 64th Street
18050,32nd Ave NW & NW 61st St,47.672779,-122.398476,18050,,1,,,,1,America/Los_Angeles,,32nd Avenue Northwest and Northwest Sixty First Street
18060,32nd Ave NW & NW 59th St,47.671360,-122.398430,18060,,1,,,,1,America/Los_Angeles,,32nd Avenue Northwest and Northwest 59th Street
18066,NW Market St & 32nd Ave NW,47.668552,-122.397911,18066,,1,,,,1,America/Los_Angeles,,Northwest Market Street and 32nd Avenue Northwest
18070,32nd Ave NW & NW 56th St,47.669605,-122.398430,18070,,1,,,,1,America/Los_Angeles,,32nd Avenue Northwest and Northwest Fifty Sixth Street
18085,32nd Ave NW & NW Market St,47.667934,-122.398415,18085,,1,,,,1,America/Los_Angeles,,32nd Avenue Northwest and Northwest Market Street
18090,NW 54th St & 30th Ave NW,47.667637,-122.396530,18090,,1,,,,1,America/Los_Angeles,,Northwest 54th Street and 30th Avenue Northwest
18100,NW Market St & 28th Ave NW,47.668591,-122.393089,18100,,1,,,,1,America/Los_Angeles,,Northwest Market Street and 28th Avenue Northwest
18120,NW Market St & Ballard Ave NW,47.668606,-122.385345,18120,,1,,,,1,America/Los_Angeles,,Northwest Market Street and Ballard Avenue Northwest
18145,Leary Ave NW & NW Vernon Pl,47.667316,-122.383018,18145,,1,,,,1,America/Los_Angeles,,Leary Avenue Northwest and Northwest Vernon Place
18151,Leary Ave NW & NW Dock Pl,47.664566,-122.379784,18151,,1,,,,1,America/Los_Angeles,,Leary Avenue Northwest and Northwest Dock Place
18152,Leary Ave NW & NW Dock Pl,47.665321,-122.380417,18152,,1,,,,1,America/Los_Angeles,,Leary avenue northwest and northwest dock Place
18165,NW Leary Way & 15th Ave NW,47.663593,-122.375587,18165,,1,,,,1,America/Los_Angeles,,Northwest Leary Way and 15th Avenue Northwest
18170,W Nickerson St & W Emerson St,47.654190,-122.375465,18170,,1,,,,1,America/Los_Angeles,,West Nickerson Street and West Emerson Street
18180,W Nickerson St & 12th Ave W,47.654884,-122.371971,18180,,1,,,,1,America/Los_Angeles,,West Nickerson Street and 12th Avenue West
18190,W Nickerson St & Jesse Ave W,47.653629,-122.369850,18190,,1,,,,1,America/Los_Angeles,,West Nickerson Street and Jesse Avenue West
18200,W Nickerson St & 8th Ave W,47.652119,-122.366890,18200,,1,,,,1,America/Los_Angeles,,West Nickerson Street and Eighth Avenue West
18210,W Nickerson St & 6th Ave W,47.651512,-122.364243,18210,,1,,,,1,America/Los_Angeles,,West Nickerson Street and Sixth Avenue West
18220,W Nickerson St & 3rd Ave W,47.650680,-122.360550,18220,,1,,,,1,America/Los_Angeles,,West Nickerson Street and Third Avenue West
18230,W Nickerson St & Queen Anne Ave N,47.649792,-122.357918,18230,,1,,,,1,America/Los_Angeles,,West Nickerson Street and Queen Anne Avenue North
18240,Nickerson St & Warren Ave N,47.648266,-122.354568,18240,,1,,,,1,America/Los_Angeles,,Nickerson Street and Warren Avenue North
18250,Nickerson St & Florentia St,47.647102,-122.352066,18250,,1,,,,1,America/Los_Angeles,,Nickerson Street and Florentia Street
18260,Dexter Ave N & 4th Ave N,47.645416,-122.349243,18260,,1,,,,1,America/Los_Angeles,,Dexter Avenue North and Fourth Avenue North
18270,Dexter Ave N & Wheeler St,47.643711,-122.346031,18270,,1,,,,1,America/Los_Angeles,,Dexter Avenue North and Wheeler Street
18295,Dexter Ave N & 6th Ave N,47.640152,-122.344444,18295,,1,,,,1,America/Los_Angeles,,Dexter Avenue North and Sixth Avenue North
18315,Dexter Ave N & Crockett St,47.637371,-122.343315,18315,,1,,,,1,America/Los_Angeles,,Dexter Avenue North and Crockett Street
18320,Dexter Ave N & Howe St,47.635719,-122.342400,18320,,1,,,,1,America/Los_Angeles,,Dexter Avenue North and Howe Street
18340,Dexter Ave N & Galer St,47.631958,-122.342384,18340,,1,,,,1,America/Los_Angeles,,Dexter Avenue North and Galer Street
18359,Dexter Ave N & Aloha St,47.627239,-122.342438,18359,,1,,,,1,America/Los_Angeles,,Dexter Avenue North and Aloha Street
18370,Dexter Ave N & Roy St,47.625156,-122.342453,18370,,1,,,,1,America/Los_Angeles,,Dexter Avenue North and Roy Street
18388,Dexter Ave N & Republican St,47.622909,-122.342468,18388,,1,,,,1,America/Los_Angeles,,Dexter Avenue North and Republican Street
18402,Dexter Ave & Denny Way,47.618301,-122.342506,18402,,1,,,,1,America/Los_Angeles,,Dexter Avenue and Denny Way
18440,Blanchard St & 6th Ave,47.615856,-122.340881,18440,,21,,,,1,America/Los_Angeles,,Blanchard Street and Sixth Ave
18455,Dexter Ave N & Harrison St,47.622402,-122.342270,18455,,1,,,,1,America/Los_Angeles,,Dexter Avenue North and Harrison Street
18465,Dexter Ave N & Roy St,47.625324,-122.342247,18465,,1,,,,1,America/Los_Angeles,,Dexter Avenue North and Roy Street
18480,Dexter Ave N & Aloha St,47.627407,-122.342216,18480,,1,,,,1,America/Los_Angeles,,Dexter Avenue North and Aloha Street
18505,Dexter Ave N & Galer St,47.632572,-122.342178,18505,,1,,,,1,America/Los_Angeles,,Dexter Avenue North and Galer Street
18530,Dexter Ave N & Newton St,47.636108,-122.342369,18530,,1,,,,1,America/Los_Angeles,,Dexter Avenue North and Newton Street
18540,Dexter Ave N & Crockett St,47.638100,-122.343513,18540,,1,,,,1,America/Los_Angeles,,Dexter Avenue North and Crockett Street
18550,Dexter Ave N & Wheeler St,47.641213,-122.344543,18550,,1,,,,1,America/Los_Angeles,,Dexter Avenue North and Wheeler Street
18580,Dexter Ave N & 4th Ave N,47.643898,-122.345978,18580,,1,,,,1,America/Los_Angeles,,Dexter Avenue North and Fourth Avenue North
18590,Dexter Ave N & 4th Ave N,47.645462,-122.349037,18590,,1,,,,1,America/Los_Angeles,,Dexter Avenue North and Fourth Avenue North
18600,Nickerson St & 3rd Ave N,47.647102,-122.351685,18600,,1,,,,1,America/Los_Angeles,,Nickerson Street and Third Avenue North
18610,Nickerson St & Warren Ave N,47.648811,-122.355431,18610,,1,,,,1,America/Los_Angeles,,Nickerson Street and Warren Avenue North
18620,Nickerson St & Cremona St,47.649681,-122.357300,18620,,1,,,,1,America/Los_Angeles,,Nickerson Streetreet and Cremona Street
18630,W Nickerson St & 3rd Ave W,47.650986,-122.361244,18630,,1,,,,1,America/Los_Angeles,,West Nickerson Street and Third Avenue West
18640,W Nickerson St & 6th Ave W,47.651791,-122.364815,18640,,1,,,,1,America/Los_Angeles,,West Nickerson Street and Sixth Avenue West
18650,W Nickerson St & 8th Ave W,47.652348,-122.367241,18650,,1,,,,1,America/Los_Angeles,,West Nickerson Street and Eighth Avenue West
18660,W Nickerson St & Jesse Ave W,47.653969,-122.370102,18660,,1,,,,1,America/Los_Angeles,,West Nickerson Street and Jesse Avenue West
18670,W Nickerson St & 11th Ave W,47.654903,-122.371696,18670,,1,,,,1,America/Los_Angeles,,West Nickerson Street and 11th Avenue West
18680,W Nickerson St & W Emerson St,47.654415,-122.375740,18680,,1,,,,1,America/Los_Angeles,,West Nickerson Street and West Emerson Street
18696,NW Leary Way & 15th Ave NW,47.663731,-122.377090,18696,,1,,,,1,America/Los_Angeles,,Northwest Leary Way and 15th Avenue Northwest
18720,Leary Ave NW & NW Vernon Pl,47.667164,-122.382584,18720,,1,,,,1,America/Los_Angeles,,Leary Avenue Northwest and Northwest Vernon Place
18740,NW Market St & Ballard Ave NW,47.668747,-122.386124,18740,,1,,,,1,America/Los_Angeles,,Northwest Market Street and Ballard Avenue Northwest
18760,NW Market St & 28th Ave NW,47.668724,-122.392639,18760,,1,,,,1,America/Los_Angeles,,Northwest Market Street and 28th Avenue Northwest
18770,NW 54th St & NW Market St,47.668381,-122.395302,18770,,1,,,,1,America/Los_Angeles,,Northwest 54th Street and Northwest Market Street
18785,NW Market St & 30th Ave NW,47.668709,-122.396057,18785,,1,,,,1,America/Los_Angeles,,Northwest Market Street and 30th Avenue Northwest
18790,32nd Ave NW & NW Market St,47.668552,-122.398216,18790,,1,,,,1,America/Los_Angeles,,32nd Avenue Northwest and Northwest Market Street
